Time (ms),Stage,PosX (m),PosY (m),PosZ (m),VeloX (m/s),VeloY (m/s),VeloZ (m/s),AccelX (m/s^2),AccelY (m/s^2),AccelZ (m/s^2),Bar Altitude,Bar Pressure,Bar Temperature,GPS Longitude,GPS Latitude,GPS Altitude,GPS PosX,GPS PosY,GPS PosZ,GPS Heading Angle,GPS Satellites,IMU AccelX,IMU AccelY,IMU AccelZ,IMU AngVeloX,IMU AngVeloY,IMU AngVeloZ,IMU MagX,IMU MagY,IMU MagZ,IMU OrientationW,IMU OrientationX,IMU OrientationY,IMU OrientationZ,IMU Roll,IMU Pitch,IMU Yaw,PWM,Target Lat,Target Long,Goal Angle,BNO Calibration Sys,BNO Calibration Accel,BNO Calibration Gryo,BNO Calibration Mag
6.72,Pre Launch,0.00,0.00,0.00,0.00,0.00,0.00,0.00,0.00,0.00,0.02,100381.45,24.37,0.00,0.00,0.00,,,0.00,0.00,0,-0.00,-0.08,9.99,-0.06,3.88,2.19,-112.69,14.19,48.06,0.67,-0.06,-0.74,-0.03,-157.26,-83.59,150.00,72.71,0.00,0.00,0.00,0,0,0,0
6.84,Pre Launch,0.00,0.00,0.00,0.00,0.00,0.00,0.00,0.00,0.00,-0.27,100384.95,24.38,0.00,0.00,0.00,,,0.00,0.00,0,0.16,0.16,9.05,-0.50,-4.75,-2.69,-111.50,14.56,49.19,0.67,-0.06,-0.74,-0.03,-157.10,-83.62,149.85,190.00,0.00,0.00,0.00,0,0,0,0
6.86,Pre Launch,0.00,0.00,0.00,0.00,0.00,0.00,0.00,0.00,0.00,-0.27,100384.95,24.38,0.00,0.00,0.00,,,0.00,0.00,0,0.04,0.09,9.37,-0.56,-1.38,-1.12,-112.25,14.19,48.06,0.67,-0.06,-0.74,-0.03,-156.99,-83.63,149.72,190.00,0.00,0.00,0.00,0,0,0,0
6.87,Pre Launch,0.00,0.00,0.00,0.00,0.00,0.00,0.00,0.00,0.00,-0.27,100384.95,24.38,0.00,0.00,0.00,,,0.00,0.00,0,-0.25,-0.09,9.55,-0.06,2.56,1.44,-112.25,14.19,48.06,0.67,-0.06,-0.74,-0.03,-156.71,-83.65,149.44,190.00,0.00,0.00,0.00,0,0,0,0
6.88,Pre Launch,0.00,0.00,0.00,0.00,0.00,0.00,0.00,0.00,0.00,-0.27,100384.95,24.38,0.00,0.00,0.00,,,0.00,0.00,0,-0.23,-0.03,9.55,-0.19,0.44,0.38,-112.25,14.19,48.06,0.67,-0.06,-0.74,-0.03,-156.69,-83.66,149.42,190.00,0.00,0.00,0.00,0,0,0,0
6.90,Pre Launch,0.00,0.00,0.00,0.00,0.00,0.00,0.00,0.00,0.00,0.02,100381.50,24.38,0.00,0.00,0.00,,,0.00,0.00,0,-0.22,-0.06,9.55,-0.31,-3.12,-1.56,-112.25,14.19,48.06,0.67,-0.06,-0.74,-0.03,-156.94,-83.63,149.69,190.00,0.00,0.00,0.00,0,0,0,0
6.91,Pre Launch,0.00,0.00,0.00,0.00,0.00,0.00,0.00,0.00,0.00,0.02,100381.50,24.38,0.00,0.00,0.00,,,0.00,0.00,0,-0.08,-0.08,9.71,-0.38,-1.19,-0.62,-106.25,15.00,40.69,0.67,-0.06,-0.74,-0.03,-157.03,-83.62,149.76,190.00,0.00,0.00,0.00,0,0,0,0
6.93,Pre Launch,0.00,0.00,0.00,0.00,0.00,0.00,0.00,0.00,0.00,0.02,100381.50,24.38,0.00,0.00,0.00,,,0.00,0.00,0,-0.22,-0.04,9.60,0.06,2.12,1.50,-106.25,15.00,40.69,0.67,-0.06,-0.74,-0.03,-156.78,-83.64,149.53,190.00,0.00,0.00,0.00,0,0,0,0
6.94,Pre Launch,0.00,0.00,0.00,0.00,0.00,0.00,0.00,0.00,0.00,0.02,100381.50,24.38,0.00,0.00,0.00,,,0.00,0.00,0,-0.11,-0.05,9.63,-0.19,-0.62,-0.31,-106.25,15.00,40.69,0.67,-0.06,-0.74,-0.03,-156.64,-83.65,149.39,190.00,0.00,0.00,0.00,0,0,0,0
6.95,Pre Launch,0.00,0.00,0.00,0.00,0.00,0.00,0.00,0.00,0.00,0.02,100381.50,24.38,0.00,0.00,0.00,,,0.00,0.00,0,0.07,0.12,9.23,-0.25,-2.00,-1.38,-106.25,15.00,40.69,0.67,-0.06,-0.74,-0.03,-156.80,-83.64,149.55,190.00,0.00,0.00,0.00,0,0,0,0
6.97,Pre Launch,0.00,0.00,0.00,0.00,0.00,0.00,0.00,0.00,0.00,-0.05,100382.27,24.37,0.00,0.00,0.00,,,0.00,0.00,0,-0.06,-0.02,9.58,-0.19,-0.38,-0.19,-108.19,14.19,39.56,0.67,-0.06,-0.74,-0.03,-156.80,-83.64,149.55,190.00,0.00,0.00,0.00,0,0,0,0
6.98,Pre Launch,0.00,0.00,0.00,0.00,0.00,0.00,0.00,0.00,0.00,-0.05,100382.27,24.37,0.00,0.00,0.00,,,0.00,0.00,0,-0.11,-0.07,9.62,-0.12,0.06,-0.06,-108.19,14.19,39.56,0.67,-0.06,-0.74,-0.03,-156.64,-83.65,149.39,175.29,0.00,0.00,0.00,0,0,0,0
6.99,Pre Launch,0.00,0.00,0.00,0.00,0.00,0.00,0.00,0.00,0.00,-0.05,100382.27,24.37,0.00,0.00,0.00,,,0.00,0.00,0,0.01,0.06,9.34,-0.25,-1.38,-0.81,-108.19,14.19,39.56,0.67,-0.06,-0.74,-0.03,-156.78,-83.64,149.53,92.14,0.00,0.00,0.00,0,0,0,0
7.01,Pre Launch,0.00,0.00,0.00,0.00,0.00,0.00,0.00,0.00,0.00,-0.05,100382.27,24.37,0.00,0.00,0.00,,,0.00,0.00,0,-0.09,-0.06,9.64,-0.19,0.25,0.19,-108.19,14.19,39.56,0.67,-0.06,-0.74,-0.03,-156.76,-83.65,149.51,51.61,0.00,0.00,0.00,0,0,0,0
7.02,Pre Launch,0.00,0.00,0.00,0.00,0.00,0.00,0.00,0.00,0.00,-0.05,100382.27,24.37,0.00,0.00,0.00,,,0.00,0.00,0,-0.09,-0.06,9.55,-0.19,-0.69,-0.38,-106.69,15.69,41.06,0.67,-0.06,-0.74,-0.03,-156.76,-83.65,149.51,-64.91,0.00,0.00,0.00,0,0,0,0
7.04,Pre Launch,0.00,0.00,0.00,0.00,0.00,0.00,0.00,0.00,0.00,-0.16,100383.57,24.37,0.00,0.00,0.00,,,0.00,0.00,0,-0.13,-0.07,9.57,-0.25,0.56,0.31,-106.69,15.69,41.06,0.67,-0.06,-0.74,-0.03,-156.76,-83.65,149.51,-110.23,0.00,0.00,0.00,0,0,0,0
7.05,Pre Launch,0.00,0.00,0.00,0.00,0.00,0.00,0.00,0.00,0.00,-0.16,100383.57,24.37,0.00,0.00,0.00,,,0.00,0.00,0,-0.01,0.02,9.46,-0.12,-0.38,-0.44,-106.69,15.69,41.06,0.67,-0.06,-0.74,-0.03,-156.76,-83.65,149.51,-107.92,0.00,0.00,0.00,0,0,0,0
7.07,Pre Launch,0.00,0.00,0.00,0.00,0.00,0.00,0.00,0.00,0.00,-0.16,100383.57,24.37,0.00,0.00,0.00,,,0.00,0.00,0,-0.19,-0.06,9.57,-0.19,0.19,0.12,-109.25,15.00,44.19,0.67,-0.06,-0.74,-0.03,-156.71,-83.65,149.44,-154.61,0.00,0.00,0.00,0,0,0,0
7.08,Pre Launch,0.00,0.00,0.00,0.00,0.00,0.00,0.00,0.00,0.00,-0.16,100383.57,24.37,0.00,0.00,0.00,,,0.00,0.00,0,-0.18,-0.02,9.53,-0.31,-0.25,-0.31,-109.25,15.00,44.19,0.67,-0.06,-0.74,-0.03,-156.64,-83.65,149.39,-195.85,0.00,0.00,0.00,0,0,0,0
7.09,Pre Launch,0.00,0.00,0.00,0.00,0.00,0.00,0.00,0.00,0.00,-0.12,100383.19,24.38,0.00,0.00,0.00,,,0.00,0.00,0,-0.11,-0.02,9.55,-0.25,0.44,0.19,-109.25,15.00,44.19,0.67,-0.06,-0.74,-0.03,-156.62,-83.66,149.37,-193.96,0.00,0.00,0.00,0,0,0,0
7.11,Pre Launch,0.00,0.00,0.00,0.00,0.00,0.00,0.00,0.00,0.00,-0.12,100383.19,24.38,0.00,0.00,0.00,,,0.00,0.00,0,-0.12,0.00,9.51,-0.25,-0.06,-0.12,-109.25,15.00,44.19,0.67,-0.06,-0.74,-0.03,-156.60,-83.66,149.35,-219.10,0.00,0.00,0.00,0,0,0,0
7.12,Pre Launch,0.00,0.00,0.00,0.00,0.00,0.00,0.00,0.00,0.00,-0.12,100383.19,24.38,0.00,0.00,0.00,,,0.00,0.00,0,-0.12,-0.04,9.51,-0.25,-0.25,-0.19,-109.00,13.88,43.88,0.67,-0.06,-0.74,-0.03,-156.60,-83.66,149.35,-241.64,0.00,0.00,0.00,0,0,0,0
7.13,Pre Launch,0.00,0.00,0.00,0.00,0.00,0.00,0.00,0.00,0.00,-0.12,100383.19,24.38,0.00,0.00,0.00,,,0.00,0.00,0,-0.11,-0.01,9.54,-0.06,-0.25,-0.12,-109.00,13.88,43.88,0.67,-0.06,-0.74,-0.03,-156.58,-83.67,149.33,-240.33,0.00,0.00,0.00,0,0,0,0
7.15,Pre Launch,0.00,0.00,0.00,0.00,0.00,0.00,0.00,0.00,0.00,-0.12,100383.19,24.38,0.00,0.00,0.00,,,0.00,0.00,0,-0.11,-0.07,9.52,-0.19,0.12,-0.06,-109.00,13.88,43.88,0.67,-0.06,-0.74,-0.03,-156.56,-83.67,149.31,-247.00,0.00,0.00,0.00,0,0,0,0
7.16,Pre Launch,0.00,0.00,0.00,0.00,0.00,0.00,0.00,0.00,0.00,0.03,100381.32,24.38,0.00,0.00,0.00,,,0.00,0.00,0,-0.13,-0.01,9.51,-0.25,-0.06,-0.12,-107.50,14.56,41.88,0.67,-0.06,-0.74,-0.03,-156.56,-83.67,149.31,-247.00,0.00,0.00,0.00,0,0,0,0
7.17,Pre Launch,0.00,0.00,0.00,0.00,0.00,0.00,0.00,0.00,0.00,0.03,100381.32,24.38,0.00,0.00,0.00,,,0.00,0.00,0,-0.13,-0.06,9.54,-0.25,0.06,0.06,-107.50,14.56,41.88,0.67,-0.06,-0.74,-0.03,-156.44,-83.68,149.19,-247.00,0.00,0.00,0.00,0,0,0,0
7.19,Pre Launch,0.00,0.00,0.00,0.00,0.00,0.00,0.00,0.00,0.00,0.03,100381.32,24.38,0.00,0.00,0.00,,,0.00,0.00,0,-0.10,-0.04,9.51,-0.19,-0.06,-0.06,-107.50,14.56,41.88,0.67,-0.06,-0.74,-0.03,-156.44,-83.68,149.19,-247.00,0.00,0.00,0.00,0,0,0,0
7.20,Pre Launch,0.00,0.00,0.00,0.00,0.00,0.00,0.00,0.00,0.00,0.03,100381.32,24.38,0.00,0.00,0.00,,,0.00,0.00,0,-0.11,-0.06,9.55,-0.19,-0.12,0.06,-107.50,14.56,41.88,0.67,-0.06,-0.74,-0.03,-156.44,-83.68,149.19,-247.00,0.00,0.00,0.00,0,0,0,0
7.22,Pre Launch,0.00,0.00,0.00,0.00,0.00,0.00,0.00,0.00,0.00,0.03,100381.32,24.38,0.00,0.00,0.00,,,0.00,0.00,0,-0.13,-0.01,9.53,-0.19,0.12,0.06,-106.00,13.88,39.19,0.67,-0.06,-0.74,-0.03,-156.40,-83.68,149.14,-247.00,0.00,0.00,0.00,0,0,0,0
7.23,Pre Launch,0.00,0.00,0.00,0.00,0.00,0.00,0.00,0.00,0.00,-0.12,100383.19,24.38,0.00,0.00,0.00,,,0.00,0.00,0,-0.06,-0.02,9.50,-0.25,0.06,0.00,-106.00,13.88,39.19,0.67,-0.06,-0.74,-0.03,-156.40,-83.68,149.14,-247.00,0.00,0.00,0.00,0,0,0,0
7.24,Pre Launch,0.00,0.00,0.00,0.00,0.00,0.00,0.00,0.00,0.00,-0.12,100383.19,24.38,0.00,0.00,0.00,,,0.00,0.00,0,-0.11,-0.02,9.53,-0.12,-0.06,-0.06,-106.00,13.88,39.19,0.67,-0.06,-0.74,-0.03,-156.40,-83.68,149.14,-247.00,0.00,0.00,0.00,0,0,0,0
7.26,Pre Launch,0.00,0.00,0.00,0.00,0.00,0.00,0.00,0.00,0.00,-0.12,100383.19,24.38,0.00,0.00,0.00,,,0.00,0.00,0,-0.10,-0.02,9.51,-0.25,-0.06,-0.06,-106.00,13.88,39.19,0.67,-0.06,-0.74,-0.03,-156.34,-83.69,149.09,-247.00,0.00,0.00,0.00,0,0,0,0
7.27,Pre Launch,0.00,0.00,0.00,0.00,0.00,0.00,0.00,0.00,0.00,-0.12,100383.19,24.38,0.00,0.00,0.00,,,0.00,0.00,0,-0.10,-0.07,9.55,-0.25,0.06,0.00,-106.00,14.56,39.56,0.67,-0.06,-0.74,-0.03,-156.32,-83.69,149.07,-247.00,0.00,0.00,0.00,0,0,0,0
7.28,Pre Launch,0.00,0.00,0.00,0.00,0.00,0.00,0.00,0.00,0.00,-0.12,100383.19,24.38,0.00,0.00,0.00,,,0.00,0.00,0,-0.10,-0.06,9.52,-0.19,0.19,0.00,-106.00,14.56,39.56,0.67,-0.06,-0.74,-0.03,-156.28,-83.69,149.02,-247.00,0.00,0.00,0.00,0,0,0,0
7.30,Pre Launch,0.00,0.00,0.00,0.00,0.00,0.00,0.00,0.00,0.00,-0.11,100383.06,24.38,0.00,0.00,0.00,,,0.00,0.00,0,-0.09,-0.03,9.53,-0.19,0.06,-0.06,-106.00,14.56,39.56,0.67,-0.06,-0.74,-0.03,-156.28,-83.69,149.02,-247.00,0.00,0.00,0.00,0,0,0,0
7.31,Pre Launch,0.00,0.00,0.00,0.00,0.00,0.00,0.00,0.00,0.00,-0.11,100383.06,24.38,0.00,0.00,0.00,,,0.00,0.00,0,-0.07,-0.03,9.52,-0.25,-0.06,0.00,-106.00,14.56,39.56,0.67,-0.06,-0.74,-0.03,-156.26,-83.69,149.00,-247.00,0.00,0.00,0.00,0,0,0,0
7.32,Pre Launch,0.00,0.00,0.00,0.00,0.00,0.00,0.00,0.00,0.00,-0.11,100383.06,24.38,0.00,0.00,0.00,,,0.00,0.00,0,-0.12,-0.02,9.53,-0.19,0.00,-0.06,-104.88,14.19,39.56,0.67,-0.06,-0.74,-0.03,-156.24,-83.70,148.98,-247.00,0.00,0.00,0.00,0,0,0,0
7.34,Pre Launch,0.00,0.00,0.00,0.00,0.00,0.00,0.00,0.00,0.00,-0.11,100383.06,24.38,0.00,0.00,0.00,,,0.00,0.00,0,-0.07,-0.05,9.53,-0.19,-0.06,-0.06,-104.88,14.19,39.56,0.67,-0.06,-0.74,-0.03,-156.24,-83.70,148.98,-247.00,0.00,0.00,0.00,0,0,0,0
7.35,Pre Launch,0.00,0.00,0.00,0.00,0.00,0.00,0.00,0.00,0.00,-0.08,100383.06,24.38,0.00,0.00,0.00,,,0.00,0.00,0,-0.04,-0.04,9.53,-0.12,0.00,0.00,-104.88,14.19,39.56,0.67,-0.06,-0.74,-0.03,-156.20,-83.69,148.94,-247.00,0.00,0.00,0.00,0,0,0,0
7.36,Pre Launch,0.00,0.00,0.00,0.00,0.00,0.00,0.00,0.00,0.00,-0.11,100383.08,24.39,0.00,0.00,0.00,,,0.00,0.00,0,-0.07,-0.03,9.55,-0.06,-0.06,0.06,-106.00,13.88,39.56,0.67,-0.06,-0.74,-0.03,-156.15,-83.70,148.90,-247.00,0.00,0.00,0.00,0,0,0,0
7.38,Pre Launch,0.00,0.00,0.00,0.00,0.00,0.00,0.00,0.00,0.00,-0.11,100383.08,24.39,0.00,0.00,0.00,,,0.00,0.00,0,-0.17,-0.03,9.51,-0.25,-0.06,-0.06,-106.00,13.88,39.56,0.67,-0.06,-0.74,-0.03,-156.15,-83.70,148.90,-247.00,0.00,0.00,0.00,0,0,0,0
7.39,Pre Launch,0.00,0.00,0.00,0.00,0.00,0.00,0.00,0.00,0.00,-0.11,100383.08,24.39,0.00,0.00,0.00,,,0.00,0.00,0,-0.07,-0.04,9.52,-0.19,0.00,-0.12,-106.00,13.88,39.56,0.67,-0.06,-0.74,-0.03,-156.10,-83.71,148.84,-247.00,0.00,0.00,0.00,0,0,0,0
7.40,Pre Launch,0.00,0.00,0.00,0.00,0.00,0.00,0.00,0.00,0.00,-0.11,100383.08,24.39,0.00,0.00,0.00,,,0.00,0.00,0,-0.06,-0.02,9.51,-0.25,0.12,0.00,-106.00,13.88,39.56,0.67,-0.06,-0.74,-0.03,-156.08,-83.71,148.82,-247.00,0.00,0.00,0.00,0,0,0,0
7.42,Pre Launch,0.00,0.00,0.00,0.00,0.00,0.00,0.00,0.00,0.00,-0.07,100382.60,24.39,0.00,0.00,0.00,,,0.00,0.00,0,-0.12,-0.00,9.53,-0.44,-0.12,0.06,-106.00,13.50,40.38,0.67,-0.06,-0.74,-0.03,-156.08,-83.71,148.82,-247.00,0.00,0.00,0.00,0,0,0,0
7.43,Pre Launch,0.00,0.00,0.00,0.00,0.00,0.00,0.00,0.00,0.00,-0.07,100382.60,24.39,0.00,0.00,0.00,,,0.00,0.00,0,-0.23,0.04,9.54,-0.06,0.12,-0.06,-106.00,13.50,40.38,0.67,-0.06,-0.74,-0.03,-156.03,-83.72,148.78,-247.00,0.00,0.00,0.00,0,0,0,0
7.45,Pre Launch,0.00,0.00,0.00,0.00,0.00,0.00,0.00,0.00,0.00,-0.07,100382.60,24.39,0.00,0.00,0.00,,,0.00,0.00,0,-0.14,-0.02,9.55,-0.19,0.00,0.19,-106.00,13.50,40.38,0.67,-0.06,-0.74,-0.03,-156.03,-83.72,148.78,-247.00,0.00,0.00,0.00,0,0,0,0
7.46,Pre Launch,0.00,0.00,0.00,0.00,0.00,0.00,0.00,0.00,0.00,-0.07,100382.60,24.39,0.00,0.00,0.00,,,0.00,0.00,0,-0.06,-0.02,9.50,-0.19,0.06,-0.06,-106.00,13.50,40.38,0.67,-0.06,-0.74,-0.03,-155.99,-83.72,148.74,-247.00,0.00,0.00,0.00,0,0,0,0
7.47,Pre Launch,0.00,0.00,0.00,0.00,0.00,0.00,0.00,0.00,0.00,-0.07,100382.60,24.39,0.00,0.00,0.00,,,0.00,0.00,0,-0.16,-0.02,9.51,-0.19,-0.06,-0.06,-105.25,13.88,40.38,0.67,-0.06,-0.74,-0.03,-155.97,-83.72,148.72,-247.00,0.00,0.00,0.00,0,0,0,0
7.48,Pre Launch,0.00,0.00,0.00,0.00,0.00,0.00,0.00,0.00,0.00,0.02,100381.54,24.39,0.00,0.00,0.00,,,0.00,0.00,0,-0.11,-0.02,9.51,-0.19,-0.06,-0.19,-105.25,13.88,40.38,0.67,-0.06,-0.74,-0.03,-155.95,-83.73,148.70,-247.00,0.00,0.00,0.00,0,0,0,0
7.50,Pre Launch,0.00,0.00,0.00,0.00,0.00,0.00,0.00,0.00,0.00,0.02,100381.54,24.39,0.00,0.00,0.00,,,0.00,0.00,0,-0.13,-0.02,9.56,-0.12,-0.06,-0.06,-105.25,13.88,40.38,0.67,-0.06,-0.74,-0.03,-155.93,-83.73,148.68,-247.00,0.00,0.00,0.00,0,0,0,0
7.51,Pre Launch,0.00,0.00,0.00,0.00,0.00,0.00,0.00,0.00,0.00,0.02,100381.54,24.39,0.00,0.00,0.00,,,0.00,0.00,0,-0.12,-0.01,9.53,-0.19,-0.06,0.06,-105.25,13.88,40.38,0.67,-0.06,-0.74,-0.03,-155.93,-83.73,148.68,-247.00,0.00,0.00,0.00,0,0,0,0
7.52,Pre Launch,0.00,0.00,0.00,0.00,0.00,0.00,0.00,0.00,0.00,0.02,100381.54,24.39,0.00,0.00,0.00,,,0.00,0.00,0,-0.13,-0.02,9.51,-0.12,0.12,-0.06,-105.56,13.88,40.38,0.67,-0.06,-0.74,-0.03,-155.89,-83.74,148.63,-247.00,0.00,0.00,0.00,0,0,0,0
7.54,Pre Launch,0.00,0.00,0.00,0.00,0.00,0.00,0.00,0.00,0.00,0.02,100381.54,24.39,0.00,0.00,0.00,,,0.00,0.00,0,-0.09,-0.02,9.51,-0.19,-0.12,-0.06,-105.56,13.88,40.38,0.67,-0.06,-0.74,-0.03,-155.89,-83.74,148.63,-247.00,0.00,0.00,0.00,0,0,0,0
7.55,Pre Launch,0.00,0.00,0.00,0.00,0.00,0.00,0.00,0.00,0.00,-0.13,100383.30,24.39,0.00,0.00,0.00,,,0.00,0.00,0,-0.13,-0.04,9.55,-0.12,-0.12,-0.12,-105.56,13.88,40.38,0.67,-0.06,-0.74,-0.03,-155.83,-83.74,148.57,-247.00,0.00,0.00,0.00,0,0,0,0
7.57,Pre Launch,0.00,0.00,0.00,0.00,0.00,0.00,0.00,0.00,0.00,-0.13,100383.30,24.39,0.00,0.00,0.00,,,0.00,0.00,0,-0.13,-0.01,9.52,-0.12,-0.19,-0.12,-106.25,14.19,39.19,0.67,-0.06,-0.74,-0.03,-155.76,-83.74,148.51,-247.00,0.00,0.00,0.00,0,0,0,0
7.58,Pre Launch,0.00,0.00,0.00,0.00,0.00,0.00,0.00,0.00,0.00,-0.13,100383.30,24.39,0.00,0.00,0.00,,,0.00,0.00,0,-0.12,0.00,9.53,-0.06,0.12,0.00,-106.25,14.19,39.19,0.67,-0.06,-0.74,-0.03,-155.76,-83.74,148.51,-247.00,0.00,0.00,0.00,0,0,0,0
7.59,Pre Launch,0.00,0.00,0.00,0.00,0.00,0.00,0.00,0.00,0.00,-0.13,100383.30,24.39,0.00,0.00,0.00,,,0.00,0.00,0,-0.07,-0.04,9.52,-0.06,-0.06,0.12,-106.25,14.19,39.19,0.67,-0.06,-0.74,-0.03,-155.72,-83.75,148.47,-247.00,0.00,0.00,0.00,0,0,0,0
7.61,Pre Launch,0.00,0.00,0.00,0.00,0.00,0.00,0.00,0.00,0.00,-0.13,100383.30,24.39,0.00,0.00,0.00,,,0.00,0.00,0,-0.10,-0.02,9.53,-0.31,0.00,0.06,-106.25,14.19,39.19,0.67,-0.06,-0.74,-0.03,-155.72,-83.75,148.47,-247.00,0.00,0.00,0.00,0,0,0,0
7.62,Pre Launch,0.00,0.00,0.00,0.00,0.00,0.00,0.00,0.00,0.00,-0.07,100382.52,24.39,0.00,0.00,0.00,,,0.00,0.00,0,-0.15,0.03,9.48,-0.12,0.06,0.00,-107.06,14.19,40.38,0.67,-0.06,-0.74,-0.03,-155.72,-83.75,148.47,-247.00,0.00,0.00,0.00,0,0,0,0
7.63,Pre Launch,0.00,0.00,0.00,0.00,0.00,0.00,0.00,0.00,0.00,-0.07,100382.52,24.39,0.00,0.00,0.00,,,0.00,0.00,0,-0.15,-0.05,9.58,-0.12,-0.19,0.06,-107.06,14.19,40.38,0.67,-0.06,-0.74,-0.03,-155.68,-83.76,148.43,-247.00,0.00,0.00,0.00,0,0,0,0
7.65,Pre Launch,0.00,0.00,0.00,0.00,0.00,0.00,0.00,0.00,0.00,-0.07,100382.52,24.39,0.00,0.00,0.00,,,0.00,0.00,0,-0.05,0.01,9.53,-0.19,0.00,0.00,-107.06,14.19,40.38,0.67,-0.06,-0.74,-0.03,-155.68,-83.76,148.43,-247.00,0.00,0.00,0.00,0,0,0,0
7.66,Pre Launch,0.00,0.00,0.00,0.00,0.00,0.00,0.00,0.00,0.00,-0.07,100382.52,24.39,0.00,0.00,0.00,,,0.00,0.00,0,-0.09,-0.01,9.51,-0.25,-0.12,0.06,-107.06,14.19,40.38,0.67,-0.06,-0.74,-0.03,-155.68,-83.76,148.43,-247.00,0.00,0.00,0.00,0,0,0,0
7.67,Pre Launch,0.00,0.00,0.00,0.00,0.00,0.00,0.00,0.00,0.00,-0.07,100382.52,24.39,0.00,0.00,0.00,,,0.00,0.00,0,-0.17,-0.02,9.54,-0.25,-0.06,-0.06,-105.56,13.50,41.19,0.67,-0.06,-0.74,-0.03,-155.66,-83.76,148.41,-247.00,0.00,0.00,0.00,0,0,0,0
7.69,Pre Launch,0.00,0.00,0.00,0.00,0.00,0.00,0.00,0.00,0.00,-0.01,100381.84,24.40,0.00,0.00,0.00,,,0.00,0.00,0,-0.10,-0.00,9.53,-0.25,0.06,0.06,-105.56,13.50,41.19,0.67,-0.06,-0.74,-0.03,-155.64,-83.77,148.39,-247.00,0.00,0.00,0.00,0,0,0,0
7.70,Pre Launch,0.00,0.00,0.00,0.00,0.00,0.00,0.00,0.00,0.00,-0.01,100381.84,24.40,0.00,0.00,0.00,,,0.00,0.00,0,-0.11,0.01,9.50,-0.25,0.00,0.12,-105.56,13.50,41.19,0.67,-0.06,-0.74,-0.03,-155.64,-83.77,148.39,-247.00,0.00,0.00,0.00,0,0,0,0
7.71,Pre Launch,0.00,0.00,0.00,0.00,0.00,0.00,0.00,0.00,0.00,-0.01,100381.84,24.40,0.00,0.00,0.00,,,0.00,0.00,0,-0.12,-0.11,9.55,-0.19,0.12,-0.06,-105.56,13.50,41.19,0.67,-0.06,-0.74,-0.03,-155.64,-83.77,148.39,-247.00,0.00,0.00,0.00,0,0,0,0
7.73,Pre Launch,0.00,0.00,0.00,0.00,0.00,0.00,0.00,0.00,0.00,-0.01,100381.84,24.40,0.00,0.00,0.00,,,0.00,0.00,0,-0.04,-0.03,9.55,0.00,0.19,0.06,-106.00,13.88,40.00,0.67,-0.06,-0.74,-0.03,-155.59,-83.77,148.35,-247.00,0.00,0.00,0.00,0,0,3,0
7.85,Pre Launch,0.00,0.00,0.00,0.00,0.00,0.00,0.00,0.00,0.00,-0.12,100383.12,24.40,0.00,0.00,0.00,,,0.00,0.00,0,-0.02,0.02,9.51,0.12,0.06,0.06,-106.25,14.19,42.38,0.67,-0.06,-0.74,-0.03,-155.43,-83.79,148.18,-247.00,0.00,0.00,0.00,0,0,3,0
7.87,Pre Launch,0.00,0.00,0.00,0.00,0.00,0.00,0.00,0.00,0.00,-0.12,100383.12,24.40,0.00,0.00,0.00,,,0.00,0.00,0,-0.22,-0.02,9.57,-0.06,-0.19,-0.19,-106.00,14.19,40.00,0.67,-0.06,-0.74,-0.03,-155.40,-83.80,148.15,-247.00,0.00,0.00,0.00,0,0,3,0
7.88,Pre Launch,0.00,0.00,0.00,0.00,0.00,0.00,0.00,0.00,0.00,-0.24,100384.58,24.40,0.00,0.00,0.00,,,0.00,0.00,0,-0.17,0.01,9.52,-0.06,0.19,0.12,-106.00,14.19,40.00,0.67,-0.06,-0.74,-0.03,-155.38,-83.80,148.13,-247.00,0.00,0.00,0.00,0,0,3,0
7.89,Pre Launch,0.00,0.00,0.00,0.00,0.00,0.00,0.00,0.00,0.00,-0.24,100384.58,24.40,0.00,0.00,0.00,,,0.00,0.00,0,-0.08,0.01,9.52,-0.12,0.19,0.06,-106.00,14.19,40.00,0.67,-0.06,-0.74,-0.03,-155.36,-83.80,148.11,-247.00,0.00,0.00,0.00,0,0,3,0
7.91,Pre Launch,0.00,0.00,0.00,0.00,0.00,0.00,0.00,0.00,0.00,-0.24,100384.58,24.40,0.00,0.00,0.00,,,0.00,0.00,0,-0.18,0.00,9.58,0.25,1.25,0.62,-106.00,14.19,40.00,0.67,-0.06,-0.74,-0.03,-155.22,-83.81,147.97,-247.00,0.00,0.00,0.00,0,0,3,0
7.92,Pre Launch,0.00,0.00,0.00,0.00,0.00,0.00,0.00,0.00,0.00,-0.24,100384.58,24.40,0.00,0.00,0.00,,,0.00,0.00,0,-0.15,-0.05,9.59,0.00,0.38,0.06,-106.00,13.88,39.19,0.67,-0.06,-0.74,-0.03,-155.22,-83.81,147.97,-247.00,0.00,0.00,0.00,0,0,3,0
7.94,Pre Launch,0.00,0.00,0.00,0.00,0.00,0.00,0.00,0.00,0.00,-0.05,100382.28,24.40,0.00,0.00,0.00,,,0.00,0.00,0,-0.24,-0.06,9.55,-0.19,-2.00,-1.31,-106.00,13.88,39.19,0.67,-0.06,-0.74,-0.03,-155.55,-83.80,148.30,-247.00,0.00,0.00,0.00,0,0,3,0
7.95,Pre Launch,0.00,0.00,0.00,0.00,0.00,0.00,0.00,0.00,0.00,-0.05,100382.28,24.40,0.00,0.00,0.00,,,0.00,0.00,0,-0.04,-0.02,9.51,-0.12,0.44,0.31,-106.00,13.88,39.19,0.67,-0.06,-0.74,-0.03,-155.55,-83.80,148.30,-247.00,0.00,0.00,0.00,0,0,3,0
7.96,Pre Launch,0.00,0.00,0.00,0.00,0.00,0.00,0.00,0.00,0.00,-0.05,100382.28,24.40,0.00,0.00,0.00,,,0.00,0.00,0,-0.30,-0.02,9.60,0.12,1.00,0.62,-106.00,13.88,39.19,0.67,-0.06,-0.74,-0.03,-155.42,-83.80,148.18,-247.00,0.00,0.00,0.00,0,0,3,0
7.97,Pre Launch,0.00,0.00,0.00,0.00,0.00,0.00,0.00,0.00,0.00,-0.05,100382.28,24.40,0.00,0.00,0.00,,,0.00,0.00,0,0.01,0.12,9.45,-0.19,-1.19,-0.50,-106.69,13.06,40.38,0.67,-0.06,-0.74,-0.03,-155.46,-83.79,148.22,-247.00,0.00,0.00,0.00,0,0,3,0
7.99,Pre Launch,0.00,0.00,0.00,0.00,0.00,0.00,0.00,0.00,0.00,-0.05,100382.28,24.40,0.00,0.00,0.00,,,0.00,0.00,0,-0.29,-0.08,9.67,0.19,0.62,0.56,-106.69,13.06,40.38,0.67,-0.06,-0.74,-0.03,-155.46,-83.79,148.22,-247.00,0.00,0.00,0.00,0,0,3,0
8.00,Pre Launch,0.00,0.00,0.00,0.00,0.00,0.00,0.00,0.00,0.00,-0.09,100382.81,24.40,0.00,0.00,0.00,,,0.00,0.00,0,-0.14,-0.01,9.48,-0.06,-0.75,-0.50,-106.69,13.06,40.38,0.67,-0.06,-0.74,-0.03,-155.49,-83.79,148.24,-247.00,0.00,0.00,0.00,0,0,3,0
8.02,Pre Launch,0.00,0.00,0.00,0.00,0.00,0.00,0.00,0.00,0.00,-0.09,100382.81,24.40,0.00,0.00,0.00,,,0.00,0.00,0,-0.18,-0.01,9.61,-0.06,-0.12,-0.12,-107.50,13.88,40.75,0.67,-0.06,-0.74,-0.03,-155.49,-83.79,148.24,-247.00,0.00,0.00,0.00,0,0,3,0
8.03,Pre Launch,0.00,0.00,0.00,0.00,0.00,0.00,0.00,0.00,0.00,-0.09,100382.81,24.40,0.00,0.00,0.00,,,0.00,0.00,0,-0.07,0.07,9.44,0.00,-0.25,-0.25,-107.50,13.88,40.75,0.67,-0.06,-0.74,-0.03,-155.49,-83.79,148.24,-247.00,0.00,0.00,0.00,0,0,3,0
8.05,Pre Launch,0.00,0.00,0.00,0.00,0.00,0.00,0.00,0.00,0.00,-0.09,100382.81,24.40,0.00,0.00,0.00,,,0.00,0.00,0,-0.23,-0.05,9.63,0.06,0.19,0.25,-107.50,13.88,40.75,0.67,-0.06,-0.74,-0.03,-155.49,-83.79,148.24,-247.00,0.00,0.00,0.00,0,0,3,0
8.06,Pre Launch,0.00,0.00,0.00,0.00,0.00,0.00,0.00,0.00,0.00,-0.09,100382.81,24.40,0.00,0.00,0.00,,,0.00,0.00,0,-0.12,-0.08,9.48,0.06,0.19,0.06,-107.50,13.88,40.75,0.67,-0.06,-0.74,-0.03,-155.49,-83.79,148.24,-247.00,0.00,0.00,0.00,0,0,3,0
8.07,Pre Launch,0.00,0.00,0.00,0.00,0.00,0.00,0.00,0.00,0.00,-0.10,100382.94,24.40,0.00,0.00,0.00,,,0.00,0.00,0,-0.14,-0.00,9.59,0.00,0.12,-0.06,-106.38,14.19,41.19,0.67,-0.06,-0.74,-0.03,-155.49,-83.79,148.24,-247.00,0.00,0.00,0.00,0,0,3,0
8.09,Pre Launch,0.00,0.00,0.00,0.00,0.00,0.00,0.00,0.00,0.00,-0.10,100382.94,24.40,0.00,0.00,0.00,,,0.00,0.00,0,-0.11,0.00,9.51,-0.12,-0.25,-0.19,-106.38,14.19,41.19,0.67,-0.06,-0.74,-0.03,-155.49,-83.79,148.24,-247.00,0.00,0.00,0.00,0,0,3,0
8.10,Pre Launch,0.00,0.00,0.00,0.00,0.00,0.00,0.00,0.00,0.00,-0.10,100382.94,24.40,0.00,0.00,0.00,,,0.00,0.00,0,-0.14,-0.02,9.51,0.06,0.00,-0.12,-106.38,14.19,41.19,0.67,-0.06,-0.74,-0.03,-155.49,-83.79,148.24,-247.00,0.00,0.00,0.00,0,0,3,0
8.11,Pre Launch,0.00,0.00,0.00,0.00,0.00,0.00,0.00,0.00,0.00,-0.10,100382.94,24.40,0.00,0.00,0.00,,,0.00,0.00,0,-0.13,-0.11,9.53,-0.06,0.12,0.00,-106.38,14.19,41.19,0.67,-0.06,-0.74,-0.03,-155.49,-83.79,148.24,-247.00,0.00,0.00,0.00,0,0,3,0
8.13,Pre Launch,0.00,0.00,0.00,0.00,0.00,0.00,0.00,0.00,0.00,-0.10,100382.94,24.40,0.00,0.00,0.00,,,0.00,0.00,0,-0.11,0.06,9.55,0.00,0.12,0.12,-107.06,13.88,40.75,0.67,-0.06,-0.74,-0.03,-155.49,-83.79,148.24,-247.00,0.00,0.00,0.00,0,0,3,0
8.14,Pre Launch,0.00,0.00,0.00,0.00,0.00,0.00,0.00,0.00,0.00,-0.29,100385.12,24.40,0.00,0.00,0.00,,,0.00,0.00,0,-0.09,-0.05,9.55,-0.12,0.31,0.19,-107.06,13.88,40.75,0.67,-0.06,-0.74,-0.03,-155.49,-83.79,148.24,-247.00,0.00,0.00,0.00,0,0,3,0
8.15,Pre Launch,0.00,0.00,0.00,0.00,0.00,0.00,0.00,0.00,0.00,-0.29,100385.12,24.40,0.00,0.00,0.00,,,0.00,0.00,0,-0.09,-0.06,9.52,-0.19,0.25,0.06,-107.06,13.88,40.75,0.67,-0.06,-0.74,-0.03,-155.49,-83.79,148.24,-247.00,0.00,0.00,0.00,0,0,3,0
8.17,Pre Launch,0.00,0.00,0.00,0.00,0.00,0.00,0.00,0.00,0.00,-0.29,100385.12,24.40,0.00,0.00,0.00,,,0.00,0.00,0,0.23,0.15,9.57,-0.31,0.00,0.25,-107.06,13.88,40.75,0.67,-0.06,-0.74,-0.03,-155.49,-83.79,148.24,-247.00,0.00,0.00,0.00,0,0,3,0
8.18,Pre Launch,0.00,0.00,0.00,0.00,0.00,0.00,0.00,0.00,0.00,-0.29,100385.12,24.40,0.00,0.00,0.00,,,0.00,0.00,0,0.94,0.08,9.62,-9.50,0.69,-0.88,-107.75,13.50,40.75,0.67,-0.06,-0.74,-0.03,-155.67,-83.80,148.30,-247.00,0.00,0.00,0.00,0,0,3,0
8.19,Pre Launch,0.00,0.00,0.00,0.00,0.00,0.00,0.00,0.00,0.00,-0.29,100385.12,24.40,0.00,0.00,0.00,,,0.00,0.00,0,3.33,1.55,8.97,-26.88,-1.62,0.25,-107.75,13.50,40.75,0.67,-0.06,-0.74,-0.03,-155.96,-83.78,148.34,-247.00,0.00,0.00,0.00,0,0,3,0
8.20,Pre Launch,0.00,0.00,0.00,0.00,0.00,0.00,0.00,0.00,0.00,-0.16,100383.57,24.40,0.00,0.00,0.00,,,0.00,0.00,0,4.44,-0.69,8.59,-51.94,-1.06,3.19,-107.75,13.50,40.75,0.67,-0.07,-0.74,-0.04,-156.74,-83.74,147.95,-247.00,0.00,0.00,0.00,0,0,3,0
8.22,Pre Launch,0.00,0.00,0.00,0.00,0.00,0.00,0.00,0.00,0.00,-0.16,100383.57,24.40,0.00,0.00,0.00,,,0.00,0.00,0,-0.28,0.77,10.66,-79.25,-2.94,4.06,-106.38,13.69,42.06,0.67,-0.08,-0.74,-0.04,-157.23,-83.70,147.67,-247.00,0.00,0.00,0.00,0,0,3,0
8.23,Pre Launch,0.00,0.00,0.00,0.00,0.00,0.00,0.00,0.00,0.00,-0.16,100383.57,24.40,0.00,0.00,0.00,,,0.00,0.00,0,0.80,-0.01,8.52,-84.38,-1.50,1.69,-106.38,13.69,42.06,0.67,-0.08,-0.74,-0.05,-157.96,-83.68,147.58,-247.00,0.00,0.00,0.00,0,0,3,0
8.25,Pre Launch,0.00,0.00,0.00,0.00,0.00,0.00,0.00,0.00,0.00,-0.16,100383.57,24.40,0.00,0.00,0.00,,,0.00,0.00,0,-0.72,-0.25,10.39,-87.31,-3.12,3.06,-106.38,13.69,42.06,0.67,-0.09,-0.74,-0.06,-159.35,-83.61,147.29,-247.00,0.00,0.00,0.00,0,0,3,0
8.26,Pre Launch,0.00,0.00,0.00,0.00,0.00,0.00,0.00,0.00,0.00,-0.39,100386.41,24.40,0.00,0.00,0.00,,,0.00,0.00,0,-1.60,0.25,12.99,-84.56,-5.25,5.31,-106.38,13.69,42.06,0.67,-0.10,-0.74,-0.06,-159.87,-83.54,147.00,-247.00,0.00,0.00,0.00,0,0,3,0
8.27,Pre Launch,0.00,0.00,0.00,0.00,0.00,0.00,0.00,0.00,0.00,-0.39,100386.41,24.40,0.00,0.00,0.00,,,0.00,0.00,0,-0.34,-0.77,9.05,-83.25,-0.12,6.81,-107.06,13.00,44.06,0.67,-0.10,-0.74,-0.07,-160.12,-83.52,146.43,-243.25,0.00,0.00,0.00,0,0,3,0
8.28,Pre Launch,0.00,0.00,0.00,0.00,0.00,0.00,0.00,0.00,0.00,-0.39,100386.41,24.40,0.00,0.00,0.00,,,0.00,0.00,0,0.39,-0.47,9.11,-79.31,4.44,7.19,-107.06,13.00,44.06,0.66,-0.11,-0.74,-0.07,-160.23,-83.54,145.77,-243.75,0.00,0.00,0.00,0,0,3,0
8.30,Pre Launch,0.00,0.00,0.00,0.00,0.00,0.00,0.00,0.00,0.00,-0.39,100386.41,24.40,0.00,0.00,0.00,,,0.00,0.00,0,1.37,-0.02,8.61,-79.81,10.44,12.25,-107.06,13.00,44.06,0.66,-0.12,-0.73,-0.08,-159.45,-83.62,143.45,-183.61,0.00,0.00,0.00,0,0,3,0
8.31,Pre Launch,0.00,0.00,0.00,0.00,0.00,0.00,0.00,0.00,0.00,-0.39,100386.41,24.40,0.00,0.00,0.00,,,0.00,0.00,0,-0.40,1.36,8.17,-86.69,6.38,18.88,-107.06,13.00,44.06,0.66,-0.12,-0.73,-0.08,-158.58,-83.62,141.73,-119.11,0.00,0.00,0.00,0,0,3,0
8.32,Pre Launch,0.00,0.00,0.00,0.00,0.00,0.00,0.00,0.00,0.00,-0.08,100386.41,24.40,0.00,0.00,0.00,,,0.00,0.00,0,-0.57,-1.88,10.31,-87.44,7.19,13.25,-107.06,10.38,43.06,0.66,-0.13,-0.73,-0.09,-158.12,-83.64,140.41,-118.16,0.00,0.00,0.00,0,0,3,0
8.34,Pre Launch,0.00,0.00,0.00,0.00,0.00,0.00,0.00,0.00,0.00,-0.08,100382.64,24.40,0.00,0.00,0.00,,,0.00,0.00,0,-1.52,-0.53,9.51,-77.69,8.69,5.81,-107.06,10.38,43.06,0.66,-0.14,-0.73,-0.10,-157.86,-83.71,138.71,-130.60,0.00,0.00,0.00,0,0,3,0
8.35,Pre Launch,0.00,0.00,0.00,0.00,0.00,0.00,0.00,0.00,0.00,-0.08,100382.64,24.40,0.00,0.00,0.00,,,0.00,0.00,0,-1.99,-0.25,8.85,-54.88,8.06,8.75,-107.06,10.38,43.06,0.66,-0.14,-0.73,-0.10,-157.36,-83.75,137.67,-108.69,0.00,0.00,0.00,0,0,3,0
8.37,Pre Launch,0.00,0.00,0.00,0.00,0.00,0.00,0.00,0.00,0.00,-0.08,100382.64,24.40,0.00,0.00,0.00,,,0.00,0.00,0,-3.86,-1.04,9.59,-44.50,3.44,4.62,-107.06,10.38,43.06,0.66,-0.14,-0.73,-0.10,-157.30,-83.76,137.18,-125.70,0.00,0.00,0.00,0,0,3,0
8.38,Pre Launch,0.00,0.00,0.00,0.00,0.00,0.00,0.00,0.00,0.00,-0.08,100382.64,24.40,0.00,0.00,0.00,,,0.00,0.00,0,-5.32,-0.05,8.77,-31.19,1.19,1.25,-109.38,7.38,44.00,0.66,-0.15,-0.73,-0.10,-157.51,-83.77,137.08,-128.75,0.00,0.00,0.00,0,0,3,0
8.39,Pre Launch,0.00,0.00,0.00,0.00,0.00,0.00,0.00,0.00,0.00,-0.15,100382.64,24.40,0.00,0.00,0.00,,,0.00,0.00,0,-0.54,-0.34,10.28,0.44,-1.00,-1.31,-109.38,7.38,44.00,0.66,-0.15,-0.73,-0.10,-157.34,-83.78,136.87,-181.81,0.00,0.00,0.00,0,0,3,0
8.40,Pre Launch,0.00,0.00,0.00,0.00,0.00,0.00,0.00,0.00,0.00,-0.22,100384.33,24.41,0.00,0.00,0.00,,,0.00,0.00,0,-0.09,0.06,9.24,0.19,-2.69,-2.88,-109.38,7.38,44.00,0.66,-0.15,-0.73,-0.10,-157.64,-83.76,137.17,-196.83,0.00,0.00,0.00,0,0,3,0
8.42,Pre Launch,0.00,0.00,0.00,0.00,0.00,0.00,0.00,0.00,0.00,-0.22,100384.33,24.41,0.00,0.00,0.00,,,0.00,0.00,0,-0.02,-0.08,9.27,-0.06,-0.50,-0.44,-109.38,7.38,44.00,0.66,-0.15,-0.73,-0.10,-157.64,-83.76,137.17,-210.96,0.00,0.00,0.00,0,0,3,0
8.43,Pre Launch,0.00,0.00,0.00,0.00,0.00,0.00,0.00,0.00,0.00,-0.22,100384.33,24.41,0.00,0.00,0.00,,,0.00,0.00,0,-0.05,-0.02,9.56,0.19,1.38,1.62,-109.38,8.75,40.69,0.66,-0.15,-0.73,-0.10,-157.34,-83.78,136.87,-208.40,0.00,0.00,0.00,0,0,3,0
8.44,Pre Launch,0.00,0.00,0.00,0.00,0.00,0.00,0.00,0.00,0.00,-0.22,100384.33,24.41,0.00,0.00,0.00,,,0.00,0.00,0,0.02,-0.06,9.31,-0.12,-1.44,-1.38,-109.38,8.75,40.69,0.66,-0.15,-0.73,-0.10,-157.47,-83.77,137.00,-227.71,0.00,0.00,0.00,0,0,3,0
8.46,Pre Launch,0.00,0.00,0.00,0.00,0.00,0.00,0.00,0.00,0.00,-0.12,100382.73,24.41,0.00,0.00,0.00,,,0.00,0.00,0,-0.05,-0.03,9.34,0.12,-0.62,-0.31,-109.38,8.75,40.69,0.66,-0.15,-0.73,-0.10,-157.52,-83.77,137.05,-244.57,0.00,0.00,0.00,0,0,3,0
8.47,Pre Launch,0.00,0.00,0.00,0.00,0.00,0.00,0.00,0.00,0.00,-0.12,100383.11,24.41,0.00,0.00,0.00,,,0.00,0.00,0,-0.16,-0.04,9.44,0.06,0.25,0.25,-109.69,8.06,35.69,0.66,-0.15,-0.73,-0.10,-157.39,-83.77,136.92,-239.30,0.00,0.00,0.00,0,0,3,0
8.48,Pre Launch,0.00,0.00,0.00,0.00,0.00,0.00,0.00,0.00,0.00,-0.12,100383.11,24.41,0.00,0.00,0.00,,,0.00,0.00,0,-0.01,-0.06,9.35,-0.19,-0.69,-0.75,-109.69,8.06,35.69,0.66,-0.15,-0.73,-0.10,-157.47,-83.77,137.00,-245.41,0.00,0.00,0.00,0,0,3,0
8.50,Pre Launch,0.00,0.00,0.00,0.00,0.00,0.00,0.00,0.00,0.00,-0.12,100383.11,24.41,0.00,0.00,0.00,,,0.00,0.00,0,-0.20,-0.10,9.63,-0.06,0.56,0.50,-109.69,8.06,35.69,0.66,-0.15,-0.73,-0.10,-157.47,-83.77,137.00,-247.00,0.00,0.00,0.00,0,0,3,0
8.51,Pre Launch,0.00,0.00,0.00,0.00,0.00,0.00,0.00,0.00,0.00,-0.12,100383.11,24.41,0.00,0.00,0.00,,,0.00,0.00,0,-0.16,-0.05,9.48,0.00,-0.31,-0.25,-109.69,8.06,35.69,0.66,-0.15,-0.73,-0.10,-157.47,-83.77,137.00,-247.00,0.00,0.00,0.00,0,0,3,0
8.52,Pre Launch,0.00,0.00,0.00,0.00,0.00,0.00,0.00,0.00,0.00,-0.39,100386.30,24.41,0.00,0.00,0.00,,,0.00,0.00,0,-0.24,-0.13,9.65,0.06,0.50,0.50,-108.50,8.50,34.06,0.66,-0.15,-0.73,-0.10,-157.47,-83.77,137.00,-247.00,0.00,0.00,0.00,0,0,3,0
8.54,Pre Launch,0.00,0.00,0.00,0.00,0.00,0.00,0.00,0.00,0.00,-0.39,100386.30,24.41,0.00,0.00,0.00,,,0.00,0.00,0,-0.16,-0.06,9.50,-0.12,-0.38,-0.38,-108.50,8.50,34.06,0.66,-0.15,-0.73,-0.10,-157.47,-83.77,137.00,-247.00,0.00,0.00,0.00,0,0,3,0
8.55,Pre Launch,0.00,0.00,0.00,0.00,0.00,0.00,0.00,0.00,0.00,-0.39,100386.30,24.41,0.00,0.00,0.00,,,0.00,0.00,0,-0.16,-0.07,9.56,0.00,0.19,0.12,-108.50,8.50,34.06,0.66,-0.15,-0.73,-0.10,-157.47,-83.77,137.00,-247.00,0.00,0.00,0.00,0,0,3,0
8.57,Pre Launch,0.00,0.00,0.00,0.00,0.00,0.00,0.00,0.00,0.00,-0.39,100386.30,24.41,0.00,0.00,0.00,,,0.00,0.00,0,-0.10,-0.04,9.47,0.00,-0.38,-0.31,-108.50,8.50,34.06,0.66,-0.15,-0.73,-0.10,-157.47,-83.77,137.00,-247.00,0.00,0.00,0.00,0,0,3,0
8.58,Pre Launch,0.00,0.00,0.00,0.00,0.00,0.00,0.00,0.00,0.00,-0.39,100386.30,24.41,0.00,0.00,0.00,,,0.00,0.00,0,-0.20,-0.10,9.55,-0.19,-0.06,0.00,-108.50,9.56,34.50,0.66,-0.15,-0.73,-0.10,-157.47,-83.77,137.00,-247.00,0.00,0.00,0.00,0,0,3,0
8.60,Pre Launch,0.00,0.00,0.00,0.00,0.00,0.00,0.00,0.00,0.00,-0.19,100383.98,24.41,0.00,0.00,0.00,,,0.00,0.00,0,-0.14,-0.09,9.54,-0.19,-0.06,-0.31,-108.50,9.56,34.50,0.66,-0.15,-0.73,-0.10,-157.47,-83.77,137.00,-247.00,0.00,0.00,0.00,0,0,3,0
8.61,Pre Launch,0.00,0.00,0.00,0.00,0.00,0.00,0.00,0.00,0.00,-0.19,100383.98,24.41,0.00,0.00,0.00,,,0.00,0.00,0,-0.19,-0.06,9.54,0.00,0.00,0.00,-108.50,9.56,34.50,0.66,-0.15,-0.73,-0.10,-157.47,-83.77,137.00,-247.00,0.00,0.00,0.00,0,0,3,0
8.62,Pre Launch,0.00,0.00,0.00,0.00,0.00,0.00,0.00,0.00,0.00,-0.19,100383.98,24.41,0.00,0.00,0.00,,,0.00,0.00,0,-0.14,-0.09,9.55,0.12,-0.12,-0.06,-110.00,9.19,34.88,0.66,-0.15,-0.73,-0.10,-157.47,-83.77,137.00,-247.00,0.00,0.00,0.00,0,0,3,0
8.64,Pre Launch,0.00,0.00,0.00,0.00,0.00,0.00,0.00,0.00,0.00,-0.19,100383.98,24.41,0.00,0.00,0.00,,,0.00,0.00,0,-0.17,-0.06,9.54,0.12,0.00,0.12,-110.00,9.19,34.88,0.66,-0.15,-0.73,-0.10,-157.47,-83.77,137.00,-247.00,0.00,0.00,0.00,0,0,3,0
8.65,Pre Launch,0.00,0.00,0.00,0.00,0.00,0.00,0.00,0.00,0.00,-0.04,100382.21,24.41,0.00,0.00,0.00,,,0.00,0.00,0,-0.18,-0.10,9.55,0.06,0.12,0.06,-110.00,9.19,34.88,0.66,-0.15,-0.73,-0.10,-157.47,-83.77,137.00,-247.00,0.00,0.00,0.00,0,0,3,0
8.67,Pre Launch,0.00,0.00,0.00,0.00,0.00,0.00,0.00,0.00,0.00,-0.04,100382.21,24.41,0.00,0.00,0.00,,,0.00,0.00,0,-0.14,-0.10,9.56,0.00,0.19,0.00,-110.00,9.19,34.88,0.66,-0.15,-0.73,-0.10,-157.47,-83.77,137.00,-247.00,0.00,0.00,0.00,0,0,3,0
8.68,Pre Launch,0.00,0.00,0.00,0.00,0.00,0.00,0.00,0.00,0.00,-0.04,100382.21,24.41,0.00,0.00,0.00,,,0.00,0.00,0,-0.19,-0.09,9.48,0.06,-0.12,0.00,-108.19,9.19,33.75,0.66,-0.15,-0.73,-0.10,-157.47,-83.77,137.00,-247.00,0.00,0.00,0.00,0,0,3,0
8.69,Pre Launch,0.00,0.00,0.00,0.00,0.00,0.00,0.00,0.00,0.00,-0.04,100382.21,24.41,0.00,0.00,0.00,,,0.00,0.00,0,-0.16,-0.09,9.53,0.19,0.00,0.06,-108.19,9.19,33.75,0.66,-0.15,-0.73,-0.10,-157.47,-83.77,137.00,-247.00,0.00,0.00,0.00,0,0,3,0
8.71,Pre Launch,0.00,0.00,0.00,0.00,0.00,0.00,0.00,0.00,0.00,-0.04,100382.21,24.41,0.00,0.00,0.00,,,0.00,0.00,0,-0.11,-0.11,9.53,-0.06,-0.06,0.06,-108.19,9.19,33.75,0.66,-0.15,-0.73,-0.10,-157.47,-83.77,137.00,-247.00,0.00,0.00,0.00,0,0,3,0
8.72,Pre Launch,0.00,0.00,0.00,0.00,0.00,0.00,0.00,0.00,0.00,-0.16,100383.64,24.41,0.00,0.00,0.00,,,0.00,0.00,0,-0.17,-0.02,9.49,0.06,0.06,0.00,-108.19,9.19,33.75,0.66,-0.15,-0.73,-0.10,-157.47,-83.77,137.00,-247.00,0.00,0.00,0.00,0,0,3,0
8.73,Pre Launch,0.00,0.00,0.00,0.00,0.00,0.00,0.00,0.00,0.00,-0.16,100383.64,24.41,0.00,0.00,0.00,,,0.00,0.00,0,-0.12,-0.09,9.54,0.00,0.00,0.19,-110.00,8.88,34.88,0.66,-0.15,-0.73,-0.10,-157.47,-83.77,137.00,-247.00,0.00,0.00,0.00,0,0,3,0
8.86,Pre Launch,0.00,0.00,0.00,0.00,0.00,0.00,0.00,0.00,0.00,-0.07,100382.58,24.41,0.00,0.00,0.00,,,0.00,0.00,0,-0.14,-0.09,9.57,0.00,0.06,-0.12,-110.38,9.19,35.25,0.66,-0.15,-0.73,-0.10,-157.47,-83.77,137.00,-247.00,0.00,0.00,0.00,0,0,3,0
8.88,Pre Launch,0.00,0.00,0.00,0.00,0.00,0.00,0.00,0.00,0.00,-0.07,100382.58,24.41,0.00,0.00,0.00,,,0.00,0.00,0,-0.17,-0.09,9.57,-0.19,0.06,0.19,-110.38,9.19,35.25,0.66,-0.15,-0.73,-0.10,-157.47,-83.77,137.00,-247.00,0.00,0.00,0.00,0,0,3,0
8.89,Pre Launch,0.00,0.00,0.00,0.00,0.00,0.00,0.00,0.00,0.00,-0.07,100382.58,24.41,0.00,0.00,0.00,,,0.00,0.00,0,-0.18,-0.05,9.51,0.06,-0.12,-0.12,-110.38,9.19,35.25,0.66,-0.15,-0.73,-0.10,-157.47,-83.77,137.00,-247.00,0.00,0.00,0.00,0,0,3,0
8.90,Pre Launch,0.00,0.00,0.00,0.00,0.00,0.00,0.00,0.00,0.00,-0.07,100382.58,24.41,0.00,0.00,0.00,,,0.00,0.00,0,-0.12,-0.07,9.49,0.00,0.00,-0.12,-110.38,9.19,35.25,0.66,-0.15,-0.73,-0.10,-157.47,-83.77,137.00,-247.00,0.00,0.00,0.00,0,0,3,0
8.92,Pre Launch,0.00,0.00,0.00,0.00,0.00,0.00,0.00,0.00,0.00,0.00,100381.70,24.41,0.00,0.00,0.00,,,0.00,0.00,0,-0.13,-0.11,9.51,0.06,0.00,-0.19,-110.38,9.19,35.25,0.66,-0.15,-0.73,-0.10,-157.47,-83.77,137.00,-247.00,0.00,0.00,0.00,0,0,3,0
8.93,Pre Launch,0.00,0.00,0.00,0.00,0.00,0.00,0.00,0.00,0.00,0.00,100381.70,24.41,0.00,0.00,0.00,,,0.00,0.00,0,-0.20,-0.08,9.55,0.00,0.19,0.06,-107.75,9.19,34.88,0.66,-0.15,-0.73,-0.10,-157.47,-83.77,137.00,-247.00,0.00,0.00,0.00,0,0,3,0
8.95,Pre Launch,0.00,0.00,0.00,0.00,0.00,0.00,0.00,0.00,0.00,0.00,100381.70,24.41,0.00,0.00,0.00,,,0.00,0.00,0,-0.19,-0.09,9.51,-0.06,0.00,-0.12,-107.75,9.19,34.88,0.66,-0.15,-0.73,-0.10,-157.47,-83.77,137.00,-247.00,0.00,0.00,0.00,0,0,3,0
8.96,Pre Launch,0.00,0.00,0.00,0.00,0.00,0.00,0.00,0.00,0.00,0.00,100381.70,24.41,0.00,0.00,0.00,,,0.00,0.00,0,-0.16,-0.10,9.55,-0.12,0.19,0.12,-107.75,9.19,34.88,0.66,-0.15,-0.73,-0.10,-157.47,-83.77,137.00,-247.00,0.00,0.00,0.00,0,0,3,0
8.97,Pre Launch,0.00,0.00,0.00,0.00,0.00,0.00,0.00,0.00,0.00,0.00,100381.70,24.41,0.00,0.00,0.00,,,0.00,0.00,0,-0.15,-0.09,9.49,0.12,0.12,0.12,-110.38,8.50,34.88,0.66,-0.15,-0.73,-0.10,-157.47,-83.77,137.00,-247.00,0.00,0.00,0.00,0,0,3,0
8.99,Pre Launch,0.00,0.00,0.00,0.00,0.00,0.00,0.00,0.00,0.00,-0.09,100382.80,24.41,0.00,0.00,0.00,,,0.00,0.00,0,-0.17,-0.11,9.49,0.12,0.06,-0.06,-110.38,8.50,34.88,0.66,-0.15,-0.73,-0.10,-157.47,-83.77,137.00,-247.00,0.00,0.00,0.00,0,0,3,0
9.00,Pre Launch,0.00,0.00,0.00,0.00,0.00,0.00,0.00,0.00,0.00,-0.09,100382.80,24.41,0.00,0.00,0.00,,,0.00,0.00,0,-0.13,-0.07,9.51,-0.19,0.12,-0.06,-110.38,8.50,34.88,0.66,-0.15,-0.73,-0.10,-157.47,-83.77,137.00,-247.00,0.00,0.00,0.00,0,0,3,0
9.02,Pre Launch,0.00,0.00,0.00,0.00,0.00,0.00,0.00,0.00,0.00,-0.09,100382.80,24.41,0.00,0.00,0.00,,,0.00,0.00,0,-0.10,-0.09,9.51,0.06,-0.12,-0.12,-110.38,8.50,34.88,0.66,-0.15,-0.73,-0.10,-157.47,-83.77,137.00,-247.00,0.00,0.00,0.00,0,0,3,0
9.03,Pre Launch,0.00,0.00,0.00,0.00,0.00,0.00,0.00,0.00,0.00,-0.09,100382.80,24.41,0.00,0.00,0.00,,,0.00,0.00,0,-0.16,-0.07,9.55,0.06,-0.06,-0.06,-108.88,8.50,37.25,0.66,-0.15,-0.73,-0.10,-157.47,-83.77,137.00,-247.00,0.00,0.00,0.00,0,0,3,0
9.05,Pre Launch,0.00,0.00,0.00,0.00,0.00,0.00,0.00,0.00,0.00,-0.14,100383.34,24.41,0.00,0.00,0.00,,,0.00,0.00,0,-0.16,-0.08,9.51,-0.06,0.00,0.06,-108.88,8.50,37.25,0.66,-0.15,-0.73,-0.10,-157.47,-83.77,137.00,-247.00,0.00,0.00,0.00,0,0,3,0
9.06,Pre Launch,0.00,0.00,0.00,0.00,0.00,0.00,0.00,0.00,0.00,-0.14,100383.34,24.41,0.00,0.00,0.00,,,0.00,0.00,0,-0.16,-0.10,9.55,0.12,0.06,-0.12,-108.88,8.50,37.25,0.66,-0.15,-0.73,-0.10,-157.47,-83.77,137.00,-247.00,0.00,0.00,0.00,0,0,3,0
9.07,Pre Launch,0.00,0.00,0.00,0.00,0.00,0.00,0.00,0.00,0.00,-0.14,100383.34,24.41,0.00,0.00,0.00,,,0.00,0.00,0,-0.17,-0.07,9.54,-0.06,0.06,-0.19,-108.88,8.50,37.25,0.66,-0.15,-0.73,-0.10,-157.47,-83.77,137.00,-247.00,0.00,0.00,0.00,0,0,3,0
9.09,Pre Launch,0.00,0.00,0.00,0.00,0.00,0.00,0.00,0.00,0.00,-0.14,100383.34,24.41,0.00,0.00,0.00,,,0.00,0.00,0,-0.15,-0.10,9.54,0.19,0.06,0.06,-111.19,8.06,34.06,0.66,-0.15,-0.73,-0.10,-157.47,-83.77,137.00,-247.00,0.00,0.00,0.00,0,0,3,0
9.10,Pre Launch,0.00,0.00,0.00,0.00,0.00,0.00,0.00,0.00,0.00,-0.14,100383.34,24.41,0.00,0.00,0.00,,,0.00,0.00,0,-0.09,-0.08,9.51,0.00,-0.19,-0.19,-111.19,8.06,34.06,0.66,-0.15,-0.73,-0.10,-157.47,-83.77,137.00,-247.00,0.00,0.00,0.00,0,0,3,0
9.11,Pre Launch,0.00,0.00,0.00,0.00,0.00,0.00,0.00,0.00,0.00,-0.17,100383.69,24.41,0.00,0.00,0.00,,,0.00,0.00,0,-0.17,-0.08,9.51,-0.06,-0.06,-0.19,-111.19,8.06,34.06,0.66,-0.15,-0.73,-0.10,-157.47,-83.77,137.00,-247.00,0.00,0.00,0.00,0,0,3,0
9.13,Pre Launch,0.00,0.00,0.00,0.00,0.00,0.00,0.00,0.00,0.00,-0.17,100383.69,24.41,0.00,0.00,0.00,,,0.00,0.00,0,-0.15,-0.09,9.53,0.06,0.00,0.06,-110.00,8.06,36.38,0.66,-0.15,-0.73,-0.10,-157.47,-83.77,137.00,-247.00,0.00,0.00,0.00,0,0,3,0
9.14,Pre Launch,0.00,0.00,0.00,0.00,0.00,0.00,0.00,0.00,0.00,-0.17,100383.69,24.41,0.00,0.00,0.00,,,0.00,0.00,0,-0.19,-0.07,9.53,-0.12,0.12,0.00,-110.00,8.06,36.38,0.66,-0.15,-0.73,-0.10,-157.47,-83.77,137.00,-247.00,0.00,0.00,0.00,0,0,3,0
9.15,Pre Launch,0.00,0.00,0.00,0.00,0.00,0.00,0.00,0.00,0.00,-0.17,100383.69,24.41,0.00,0.00,0.00,,,0.00,0.00,0,-0.12,-0.13,9.53,0.19,0.00,0.00,-110.00,8.06,36.38,0.66,-0.15,-0.73,-0.10,-157.47,-83.77,137.00,-247.00,0.00,0.00,0.00,0,0,3,0
9.17,Pre Launch,0.00,0.00,0.00,0.00,0.00,0.00,0.00,0.00,0.00,-0.17,100383.69,24.41,0.00,0.00,0.00,,,0.00,0.00,0,-0.17,-0.08,9.55,0.06,-0.19,0.06,-110.00,8.06,36.38,0.66,-0.15,-0.73,-0.10,-157.47,-83.77,137.00,-247.00,0.00,0.00,0.00,0,0,3,0
9.18,Pre Launch,0.00,0.00,0.00,0.00,0.00,0.00,0.00,0.00,0.00,-0.11,100383.03,24.41,0.00,0.00,0.00,,,0.00,0.00,0,-0.13,-0.04,9.53,-0.06,-0.12,-0.12,-109.25,8.88,37.56,0.66,-0.15,-0.73,-0.10,-157.47,-83.77,137.00,-247.00,0.00,0.00,0.00,0,0,3,0
9.20,Pre Launch,0.00,0.00,0.00,0.00,0.00,0.00,0.00,0.00,0.00,-0.11,100383.03,24.41,0.00,0.00,0.00,,,0.00,0.00,0,-0.13,-0.11,9.54,0.12,-0.12,0.06,-109.25,8.88,37.56,0.66,-0.15,-0.73,-0.10,-157.47,-83.77,137.00,-247.00,0.00,0.00,0.00,0,0,3,0
9.21,Pre Launch,0.00,0.00,0.00,0.00,0.00,0.00,0.00,0.00,0.00,-0.11,100383.03,24.41,0.00,0.00,0.00,,,0.00,0.00,0,-0.15,-0.04,9.54,0.06,0.00,0.00,-109.25,8.88,37.56,0.66,-0.15,-0.73,-0.10,-157.47,-83.77,137.00,-247.00,0.00,0.00,0.00,0,0,3,0
9.23,Pre Launch,0.00,0.00,0.00,0.00,0.00,0.00,0.00,0.00,0.00,-0.11,100383.03,24.41,0.00,0.00,0.00,,,0.00,0.00,0,-0.16,-0.12,9.54,-0.12,0.19,-0.06,-109.25,8.88,37.56,0.66,-0.15,-0.73,-0.10,-157.47,-83.77,137.00,-247.00,0.00,0.00,0.00,0,0,3,0
9.24,Pre Launch,0.00,0.00,0.00,0.00,0.00,0.00,0.00,0.00,0.00,-0.35,100385.91,24.42,0.00,0.00,0.00,,,0.00,0.00,0,-0.15,-0.10,9.53,0.00,-0.56,-0.12,-111.19,9.19,36.06,0.66,-0.15,-0.73,-0.10,-157.47,-83.77,137.00,-247.00,0.00,0.00,0.00,0,0,3,0
9.25,Pre Launch,0.00,0.00,0.00,0.00,0.00,0.00,0.00,0.00,0.00,-0.35,100385.91,24.42,0.00,0.00,0.00,,,0.00,0.00,0,-0.15,-0.08,9.53,-0.06,-0.12,-0.06,-111.19,9.19,36.06,0.66,-0.15,-0.73,-0.10,-157.47,-83.77,137.00,-247.00,0.00,0.00,0.00,0,0,3,0
9.27,Pre Launch,0.00,0.00,0.00,0.00,0.00,0.00,0.00,0.00,0.00,-0.35,100385.91,24.42,0.00,0.00,0.00,,,0.00,0.00,0,-0.16,-0.06,9.52,-0.12,-0.12,0.00,-111.19,9.19,36.06,0.66,-0.15,-0.73,-0.10,-157.47,-83.77,137.00,-247.00,0.00,0.00,0.00,0,0,3,0
9.28,Pre Launch,0.00,0.00,0.00,0.00,0.00,0.00,0.00,0.00,0.00,-0.35,100385.91,24.42,0.00,0.00,0.00,,,0.00,0.00,0,-0.10,-0.09,9.51,0.06,-0.19,-0.31,-108.88,9.19,36.38,0.66,-0.15,-0.73,-0.10,-157.47,-83.77,137.00,-247.00,0.00,0.00,0.00,0,0,3,0
9.29,Pre Launch,0.00,0.00,0.00,0.00,0.00,0.00,0.00,0.00,0.00,-0.35,100385.91,24.42,0.00,0.00,0.00,,,0.00,0.00,0,-0.19,-0.10,9.55,0.00,-0.25,-0.06,-108.88,9.19,36.38,0.66,-0.15,-0.73,-0.10,-157.47,-83.77,137.00,-247.00,0.00,0.00,0.00,0,0,3,0
9.31,Pre Launch,0.00,0.00,0.00,0.00,0.00,0.00,0.00,0.00,0.00,-0.36,100385.95,24.42,0.00,0.00,0.00,,,0.00,0.00,0,-0.13,-0.07,9.55,-0.12,-0.38,-0.38,-108.88,9.19,36.38,0.66,-0.15,-0.73,-0.10,-157.47,-83.77,137.00,-247.00,0.00,0.00,0.00,0,0,3,0
9.32,Pre Launch,0.00,0.00,0.00,0.00,0.00,0.00,0.00,0.00,0.00,-0.36,100385.95,24.42,0.00,0.00,0.00,,,0.00,0.00,0,-0.17,-0.09,9.52,-0.12,-0.69,-0.75,-108.88,9.19,36.38,0.66,-0.15,-0.73,-0.10,-157.56,-83.77,137.08,-247.00,0.00,0.00,0.00,0,0,3,0
9.33,Pre Launch,0.00,0.00,0.00,0.00,0.00,0.00,0.00,0.00,0.00,-0.36,100385.95,24.42,0.00,0.00,0.00,,,0.00,0.00,0,-0.07,-0.05,9.45,-0.06,-0.75,-0.56,-110.75,8.88,35.69,0.66,-0.15,-0.73,-0.10,-157.57,-83.76,137.10,-247.00,0.00,0.00,0.00,0,0,3,0
9.35,Pre Launch,0.00,0.00,0.00,0.00,0.00,0.00,0.00,0.00,0.00,-0.36,100385.95,24.42,0.00,0.00,0.00,,,0.00,0.00,0,-0.09,-0.04,9.43,0.19,0.25,0.44,-110.75,8.88,35.69,0.66,-0.15,-0.73,-0.10,-157.57,-83.76,137.10,-247.00,0.00,0.00,0.00,0,0,3,0
9.36,Pre Launch,0.00,0.00,0.00,0.00,0.00,0.00,0.00,0.00,0.00,-0.36,100385.95,24.42,0.00,0.00,0.00,,,0.00,0.00,0,-0.32,-0.13,9.73,0.25,1.38,1.62,-110.75,8.88,35.69,0.66,-0.15,-0.73,-0.10,-157.39,-83.77,136.92,-247.00,0.00,0.00,0.00,0,0,3,0
9.38,Pre Launch,0.00,0.00,0.00,0.00,0.00,0.00,0.00,0.00,0.00,-0.11,100383.03,24.41,0.00,0.00,0.00,,,0.00,0.00,0,-0.32,-0.11,9.67,0.06,1.75,1.56,-110.75,8.88,35.69,0.66,-0.15,-0.73,-0.10,-157.09,-83.78,136.62,-247.00,0.00,0.00,0.00,0,0,3,0
9.39,Pre Launch,0.00,0.00,0.00,0.00,0.00,0.00,0.00,0.00,0.00,-0.11,100383.03,24.41,0.00,0.00,0.00,,,0.00,0.00,0,0.06,-0.03,9.28,-0.06,-0.31,-0.19,-110.38,8.06,35.69,0.66,-0.15,-0.73,-0.10,-157.05,-83.78,136.58,-247.00,0.00,0.00,0.00,0,0,3,0
9.40,Pre Launch,0.00,0.00,0.00,0.00,0.00,0.00,0.00,0.00,0.00,-0.11,100383.03,24.41,0.00,0.00,0.00,,,0.00,0.00,0,-0.18,-0.05,9.55,0.19,0.94,1.06,-110.38,8.06,35.69,0.66,-0.15,-0.73,-0.10,-156.88,-83.79,136.40,-247.00,0.00,0.00,0.00,0,0,3,0
9.41,Pre Launch,0.00,0.00,0.00,0.00,0.00,0.00,0.00,0.00,0.00,-0.11,100383.03,24.41,0.00,0.00,0.00,,,0.00,0.00,0,0.02,-0.01,9.37,0.00,-0.69,-0.88,-110.38,8.06,35.69,0.66,-0.15,-0.73,-0.10,-156.94,-83.79,136.47,-247.00,0.00,0.00,0.00,0,0,3,0
9.43,Pre Launch,0.00,0.00,0.00,0.00,0.00,0.00,0.00,0.00,0.00,-0.11,100383.03,24.41,0.00,0.00,0.00,,,0.00,0.00,0,-0.03,-0.01,9.43,0.00,0.25,0.19,-110.38,8.88,37.25,0.66,-0.15,-0.73,-0.10,-156.90,-83.79,136.43,-247.00,0.00,0.00,0.00,0,0,3,0
9.44,Pre Launch,0.00,0.00,0.00,0.00,0.00,0.00,0.00,0.00,0.00,-0.07,100382.55,24.42,0.00,0.00,0.00,,,0.00,0.00,0,-0.06,-0.09,9.47,0.06,-0.69,-0.50,-110.38,8.88,37.25,0.66,-0.15,-0.73,-0.10,-156.93,-83.78,136.45,-247.00,0.00,0.00,0.00,0,0,3,0
9.46,Pre Launch,0.00,0.00,0.00,0.00,0.00,0.00,0.00,0.00,0.00,-0.07,100382.55,24.42,0.00,0.00,0.00,,,0.00,0.00,0,-0.28,-0.09,9.67,0.12,0.25,0.44,-110.38,8.88,37.25,0.66,-0.15,-0.73,-0.10,-156.80,-83.79,136.33,-247.00,0.00,0.00,0.00,0,0,3,0
9.47,Pre Launch,0.00,0.00,0.00,0.00,0.00,0.00,0.00,0.00,0.00,-0.07,100382.55,24.42,0.00,0.00,0.00,,,0.00,0.00,0,-0.10,-0.05,9.54,0.00,-0.50,-0.62,-110.38,8.88,37.25,0.66,-0.15,-0.73,-0.10,-156.84,-83.79,136.37,-247.00,0.00,0.00,0.00,0,0,3,0
9.48,Pre Launch,0.00,0.00,0.00,0.00,0.00,0.00,0.00,0.00,0.00,-0.07,100382.55,24.42,0.00,0.00,0.00,,,0.00,0.00,0,-0.28,-0.11,9.69,0.19,0.25,0.69,-110.00,8.88,34.88,0.66,-0.15,-0.73,-0.10,-156.71,-83.79,136.24,-247.00,0.00,0.00,0.00,0,0,3,0
9.50,Pre Launch,0.00,0.00,0.00,0.00,0.00,0.00,0.00,0.00,0.00,-0.12,100383.15,24.42,0.00,0.00,0.00,,,0.00,0.00,0,-0.20,-0.11,9.57,0.12,-0.31,-0.12,-110.00,8.88,34.88,0.66,-0.15,-0.73,-0.10,-156.56,-83.80,136.09,-247.00,0.00,0.00,0.00,0,0,3,0
9.51,Pre Launch,0.00,0.00,0.00,0.00,0.00,0.00,0.00,0.00,0.00,-0.12,100383.15,24.42,0.00,0.00,0.00,,,0.00,0.00,0,-0.22,-0.05,9.55,0.12,0.50,0.50,-110.00,8.88,34.88,0.66,-0.15,-0.73,-0.10,-156.46,-83.80,135.99,-247.00,0.00,0.00,0.00,0,0,3,0
9.53,Pre Launch,0.00,0.00,0.00,0.00,0.00,0.00,0.00,0.00,0.00,-0.12,100383.15,24.42,0.00,0.00,0.00,,,0.00,0.00,0,-0.11,-0.01,9.47,0.25,-0.12,-0.12,-110.00,8.88,34.88,0.66,-0.15,-0.73,-0.10,-156.43,-83.80,135.96,-247.00,0.00,0.00,0.00,0,0,3,0
9.54,Pre Launch,0.00,0.00,0.00,0.00,0.00,0.00,0.00,0.00,0.00,-0.12,100383.15,24.42,0.00,0.00,0.00,,,0.00,0.00,0,0.15,-0.11,9.38,0.25,0.94,0.75,-110.38,8.50,36.06,0.66,-0.15,-0.73,-0.10,-156.28,-83.81,135.81,-247.00,0.00,0.00,0.00,0,0,3,0
9.55,Pre Launch,0.00,0.00,0.00,0.00,0.00,0.00,0.00,0.00,0.00,-0.12,100383.15,24.42,0.00,0.00,0.00,,,0.00,0.00,0,-0.08,0.01,9.44,0.12,0.25,0.25,-110.38,8.50,36.06,0.66,-0.15,-0.73,-0.10,-156.21,-83.81,135.75,-247.00,0.00,0.00,0.00,0,0,3,0
9.56,Pre Launch,0.00,0.00,0.00,0.00,0.00,0.00,0.00,0.00,0.00,-0.27,100384.90,24.42,0.00,0.00,0.00,,,0.00,0.00,0,-0.11,-0.05,9.51,0.06,-0.56,-0.38,-110.38,8.50,36.06,0.66,-0.15,-0.73,-0.10,-156.18,-83.81,135.71,-247.00,0.00,0.00,0.00,0,0,3,0
9.58,Pre Launch,0.00,0.00,0.00,0.00,0.00,0.00,0.00,0.00,0.00,-0.27,100384.90,24.42,0.00,0.00,0.00,,,0.00,0.00,0,-0.19,-0.03,9.50,0.38,0.38,0.19,-110.75,9.56,36.88,0.66,-0.15,-0.73,-0.10,-156.13,-83.81,135.66,-247.00,0.00,0.00,0.00,0,0,3,0
9.59,Pre Launch,0.00,0.00,0.00,0.00,0.00,0.00,0.00,0.00,0.00,-0.27,100384.90,24.42,0.00,0.00,0.00,,,0.00,0.00,0,-0.16,-0.06,9.55,0.31,-0.06,-0.31,-110.75,9.56,36.88,0.66,-0.15,-0.73,-0.10,-156.08,-83.81,135.62,-247.00,0.00,0.00,0.00,0,0,3,0
9.60,Pre Launch,0.00,0.00,0.00,0.00,0.00,0.00,0.00,0.00,0.00,-0.27,100384.90,24.42,0.00,0.00,0.00,,,0.00,0.00,0,-0.16,-0.10,9.57,0.44,0.00,0.06,-110.75,9.56,36.88,0.66,-0.15,-0.73,-0.10,-156.02,-83.81,135.55,-247.00,0.00,0.00,0.00,0,0,3,0
9.62,Pre Launch,0.00,0.00,0.00,0.00,0.00,0.00,0.00,0.00,0.00,-0.27,100384.90,24.42,0.00,0.00,0.00,,,0.00,0.00,0,-0.12,-0.21,9.72,1.00,-0.56,-0.75,-110.75,9.56,36.88,0.66,-0.15,-0.73,-0.10,-156.12,-83.81,135.67,-247.00,0.00,0.00,0.00,0,0,3,0
9.63,Pre Launch,0.00,0.00,0.00,0.00,0.00,0.00,0.00,0.00,0.00,-0.13,100383.31,24.42,0.00,0.00,0.00,,,0.00,0.00,0,-0.43,-0.26,10.25,-1.19,-4.94,-5.00,-109.25,8.88,37.25,0.66,-0.15,-0.73,-0.10,-156.70,-83.79,136.24,-247.00,0.00,0.00,0.00,0,0,3,0
9.65,Pre Launch,0.00,0.00,0.00,0.00,0.00,0.00,0.00,0.00,0.00,-0.13,100383.31,24.42,0.00,0.00,0.00,,,0.00,0.00,0,0.59,-1.00,13.30,-1.44,-14.69,-13.88,-109.25,8.88,37.25,0.66,-0.15,-0.73,-0.10,-158.38,-83.71,137.92,-247.00,0.00,0.00,0.00,0,0,3,0
9.66,Pre Launch,0.00,0.00,0.00,0.00,0.00,0.00,0.00,0.00,0.00,-0.13,100383.31,24.42,0.00,0.00,0.00,,,0.00,0.00,0,-1.32,0.26,9.07,-8.62,-9.38,-32.56,-109.25,8.88,37.25,0.66,-0.14,-0.73,-0.11,-164.00,-83.58,143.46,-247.00,0.00,0.00,0.00,0,0,3,0
9.67,Pre Launch,0.00,0.00,0.00,0.00,0.00,0.00,0.00,0.00,0.00,-0.13,100383.31,24.42,0.00,0.00,0.00,,,0.00,0.00,0,-2.18,1.85,10.26,-21.75,-2.00,-33.44,-109.25,8.88,37.25,0.66,-0.14,-0.73,-0.11,-167.02,-83.65,146.28,-247.00,0.00,0.00,0.00,0,0,3,0
9.69,Pre Launch,0.00,0.00,0.00,0.00,0.00,0.00,0.00,0.00,0.00,-0.13,100383.31,24.42,0.00,0.00,0.00,,,0.00,0.00,0,0.38,-0.20,9.23,-12.44,2.00,-34.00,-110.50,8.19,34.19,0.66,-0.14,-0.73,-0.11,-170.05,-83.73,149.22,-247.00,0.00,0.00,0.00,0,0,3,0
9.70,Pre Launch,0.00,0.00,0.00,0.00,0.00,0.00,0.00,0.00,0.00,-0.19,100383.97,24.42,0.00,0.00,0.00,,,0.00,0.00,0,1.11,0.48,3.15,-2.25,18.38,-24.62,-110.50,8.19,34.19,0.66,-0.14,-0.73,-0.12,-173.15,-84.12,152.29,-247.00,0.00,0.00,0.00,0,0,3,0
9.71,Pre Launch,0.00,0.00,0.00,0.00,0.00,0.00,0.00,0.00,0.00,-0.19,100383.97,24.42,0.00,0.00,0.00,,,0.00,0.00,0,-0.72,0.96,14.66,-9.81,-2.56,3.25,-110.50,8.19,34.19,0.66,-0.14,-0.73,-0.12,-173.00,-84.09,152.04,-247.00,0.00,0.00,0.00,0,0,3,0
9.73,Pre Launch,0.00,0.00,0.00,0.00,0.00,0.00,0.00,0.00,0.00,-0.19,100383.97,24.42,0.00,0.00,0.00,,,0.00,0.00,0,0.89,0.31,11.03,-15.19,1.31,0.25,-110.50,8.19,34.19,0.66,-0.14,-0.73,-0.12,-173.12,-84.10,152.02,-247.00,0.00,0.00,0.00,0,0,3,0
9.74,Pre Launch,0.00,0.00,0.00,0.00,0.00,0.00,0.00,0.00,0.00,-0.19,100383.97,24.42,0.00,0.00,0.00,,,0.00,0.00,0,-1.35,-0.06,8.81,-12.56,-0.75,0.94,-111.25,6.75,34.69,0.66,-0.14,-0.73,-0.12,-173.15,-84.10,151.92,-247.00,0.00,0.00,0.00,0,0,3,0
9.86,Pre Launch,0.00,0.00,0.00,0.00,0.00,0.00,0.00,0.00,0.00,-0.21,100384.18,24.43,0.00,0.00,0.00,,,0.00,0.00,0,-4.56,0.79,10.69,-6.19,-3.19,-16.19,-109.88,7.69,35.19,0.65,-0.15,-0.73,-0.14,172.36,-82.87,164.08,-247.00,0.00,0.00,0.00,0,0,3,0
9.88,Pre Launch,0.00,0.00,0.00,0.00,0.00,0.00,0.00,0.00,0.00,-0.21,100384.18,24.43,0.00,0.00,0.00,,,0.00,0.00,0,-4.81,-1.37,10.52,4.88,0.19,-20.38,-109.88,7.69,35.19,0.65,-0.15,-0.74,-0.14,170.83,-82.84,165.68,-247.00,0.00,0.00,0.00,0,0,3,0
9.89,Pre Launch,0.00,0.00,0.00,0.00,0.00,0.00,0.00,0.00,0.00,-0.21,100384.18,24.43,0.00,0.00,0.00,,,0.00,0.00,0,-4.42,-2.16,10.95,15.00,16.12,-25.56,-109.38,6.38,33.75,0.65,-0.14,-0.73,-0.14,168.82,-82.95,167.85,-247.00,0.00,0.00,0.00,0,0,3,0
9.90,Pre Launch,0.00,0.00,0.00,0.00,0.00,0.00,0.00,0.00,0.00,-0.10,100382.89,24.43,0.00,0.00,0.00,,,0.00,0.00,0,-1.83,-1.36,11.02,25.81,14.06,-29.00,-109.38,6.38,33.75,0.65,-0.14,-0.73,-0.14,164.59,-83.00,172.61,-247.00,0.00,0.00,0.00,0,0,3,0
9.91,Pre Launch,0.00,0.00,0.00,0.00,0.00,0.00,0.00,0.00,0.00,-0.10,100382.89,24.43,0.00,0.00,0.00,,,0.00,0.00,0,-0.60,0.69,10.72,30.25,2.69,-34.81,-109.38,6.38,33.75,0.65,-0.13,-0.74,-0.14,162.17,-82.93,175.35,-247.00,0.00,0.00,0.00,0,0,3,0
9.93,Pre Launch,0.00,0.00,0.00,0.00,0.00,0.00,0.00,0.00,0.00,-0.10,100382.89,24.43,0.00,0.00,0.00,,,0.00,0.00,0,-0.64,0.63,9.81,33.25,0.69,-37.56,-109.38,6.38,33.75,0.65,-0.13,-0.74,-0.14,159.73,-82.82,178.13,-247.00,0.00,0.00,0.00,0,0,3,0
9.94,Pre Launch,0.00,0.00,0.00,0.00,0.00,0.00,0.00,0.00,0.00,-0.10,100382.89,24.43,0.00,0.00,0.00,,,0.00,0.00,0,2.38,4.10,10.68,35.62,2.44,-37.81,-108.88,5.56,31.00,0.65,-0.12,-0.74,-0.14,157.33,-82.70,-179.10,-247.00,0.00,0.00,0.00,0,0,3,0
9.95,Pre Launch,0.00,0.00,0.00,0.00,0.00,0.00,0.00,0.00,0.00,-0.10,100382.89,24.43,0.00,0.00,0.00,,,0.00,0.00,0,2.11,0.43,9.25,29.81,3.38,-38.81,-108.88,5.56,31.00,0.65,-0.12,-0.74,-0.14,152.63,-82.43,-173.79,190.00,0.00,0.00,0.00,0,0,3,0
9.97,Pre Launch,0.00,0.00,0.00,0.00,0.00,0.00,0.00,0.00,0.00,-0.29,100385.14,24.42,0.00,0.00,0.00,,,0.00,0.00,0,0.44,-1.62,10.65,35.00,4.50,-40.56,-108.88,5.56,31.00,0.65,-0.11,-0.74,-0.14,148.06,-82.13,-168.46,190.00,0.00,0.00,0.00,0,0,3,0
9.98,Pre Launch,0.00,0.00,0.00,0.00,0.00,0.00,0.00,0.00,0.00,-0.29,100385.14,24.42,0.00,0.00,0.00,,,0.00,0.00,0,1.09,-1.60,14.07,29.31,6.50,-49.25,-107.88,3.50,30.00,0.65,-0.10,-0.74,-0.14,145.26,-81.92,-165.35,190.00,0.00,0.00,0.00,0,0,3,0
10.00,Pre Launch,0.00,0.00,0.00,0.00,0.00,0.00,0.00,0.00,0.00,-0.29,100385.14,24.42,0.00,0.00,0.00,,,0.00,0.00,0,1.39,-2.65,14.08,19.50,2.62,-61.69,-107.88,3.50,30.00,0.65,-0.10,-0.74,-0.15,141.99,-81.59,-161.86,-111.02,0.00,0.00,0.00,0,0,3,0
10.02,Pre Launch,0.00,0.00,0.00,0.00,0.00,0.00,0.00,0.00,0.00,-0.14,100385.14,24.42,0.00,0.00,0.00,,,0.00,0.00,0,-2.64,-1.32,13.73,-1.38,2.94,-91.25,-107.88,3.50,30.00,0.65,-0.09,-0.74,-0.15,134.44,-80.50,-154.18,-207.05,0.00,0.00,0.00,0,0,3,0
10.03,Pre Launch,0.00,0.00,0.00,0.00,0.00,0.00,0.00,0.00,0.00,-0.14,100383.38,24.42,0.00,0.00,0.00,,,0.00,0.00,0,-3.49,0.45,15.10,7.12,5.75,-105.06,-107.69,1.69,31.50,0.64,-0.07,-0.74,-0.17,126.39,-78.92,-145.71,-247.00,0.00,0.00,0.00,0,0,3,0
10.05,Pre Launch,0.00,0.00,0.00,0.00,0.00,0.00,0.00,0.00,0.00,-0.14,100383.38,24.42,0.00,0.00,0.00,,,0.00,0.00,0,-8.81,-1.49,15.93,42.25,10.38,-135.69,-107.69,1.69,31.50,0.64,-0.06,-0.74,-0.17,122.75,-77.89,-141.58,-247.00,0.00,0.00,0.00,0,0,3,0
10.06,Pre Launch,0.00,0.00,0.00,0.00,0.00,0.00,0.00,0.00,0.00,-0.14,100383.38,24.42,0.00,0.00,0.00,,,0.00,0.00,0,-9.39,-1.96,16.02,66.12,29.25,-152.44,-107.69,1.69,31.50,0.64,-0.03,-0.74,-0.18,114.77,-75.55,-131.82,-247.00,0.00,0.00,0.00,0,0,3,0
10.07,Pre Launch,0.00,0.00,0.00,0.00,0.00,0.00,0.00,0.00,0.00,-0.14,100383.38,24.42,0.00,0.00,0.00,,,0.00,0.00,0,-8.70,-2.23,14.43,115.81,86.62,-186.12,-107.69,1.69,31.50,0.65,-0.01,-0.74,-0.18,110.45,-74.21,-126.19,-247.00,0.00,0.00,0.00,0,0,3,0
10.09,Pre Launch,0.00,0.00,0.00,0.00,0.00,0.00,0.00,0.00,0.00,-0.23,100384.44,24.42,0.00,0.00,0.00,,,0.00,0.00,0,-7.33,-2.04,17.49,147.69,113.88,-202.06,-103.19,-2.75,27.88,0.65,0.01,-0.74,-0.18,106.29,-72.70,-120.36,-247.00,0.00,0.00,0.00,0,0,3,0
10.10,Pre Launch,0.00,0.00,0.00,0.00,0.00,0.00,0.00,0.00,0.00,-0.23,100384.44,24.42,0.00,0.00,0.00,,,0.00,0.00,0,-7.42,-1.84,12.56,167.12,149.69,-223.25,-103.19,-2.75,27.88,0.66,0.06,-0.72,-0.19,98.29,-69.03,-108.28,-247.00,0.00,0.00,0.00,0,0,3,0
10.11,Pre Launch,0.00,0.00,0.00,0.00,0.00,0.00,0.00,0.00,0.00,-0.23,100384.44,24.42,0.00,0.00,0.00,,,0.00,0.00,0,-4.38,0.35,10.62,199.50,186.75,-240.81,-103.19,-2.75,27.88,0.67,0.09,-0.71,-0.19,95.11,-66.93,-102.77,-247.00,0.00,0.00,0.00,0,0,3,0
10.13,Pre Launch,0.00,0.00,0.00,0.00,0.00,0.00,0.00,0.00,0.00,-0.23,100384.44,24.42,0.00,0.00,0.00,,,0.00,0.00,0,-3.21,0.02,10.02,204.38,194.62,-242.25,-103.19,-2.75,27.88,0.68,0.12,-0.70,-0.19,92.55,-64.71,-97.79,-247.00,0.00,0.00,0.00,0,0,3,0
10.14,Pre Launch,0.00,0.00,0.00,0.00,0.00,0.00,0.00,0.00,0.00,-0.23,100384.44,24.42,0.00,0.00,0.00,,,0.00,0.00,0,-1.91,0.10,9.26,201.75,192.25,-239.69,-101.25,-10.25,26.00,0.68,0.15,-0.69,-0.19,90.63,-62.44,-93.46,-247.00,0.00,0.00,0.00,0,0,3,0
10.15,Pre Launch,0.00,0.00,0.00,0.00,0.00,0.00,0.00,0.00,0.00,-0.15,100383.50,24.42,0.00,0.00,0.00,,,0.00,0.00,0,-1.64,0.64,8.66,190.62,182.69,-235.25,-101.25,-10.25,26.00,0.69,0.20,-0.67,-0.19,88.32,-57.88,-86.71,-247.00,0.00,0.00,0.00,0,0,3,0
10.17,Pre Launch,0.00,0.00,0.00,0.00,0.00,0.00,0.00,0.00,0.00,-0.15,100383.50,24.42,0.00,0.00,0.00,,,0.00,0.00,0,-0.98,-0.14,8.86,162.00,163.81,-229.69,-101.25,-10.25,26.00,0.69,0.23,-0.66,-0.19,87.60,-55.60,-83.97,-247.00,0.00,0.00,0.00,0,0,3,0
10.18,Pre Launch,0.00,0.00,0.00,0.00,0.00,0.00,0.00,0.00,0.00,-0.15,100383.50,24.42,0.00,0.00,0.00,,,0.00,0.00,0,0.42,-0.28,7.42,142.69,160.56,-230.44,-101.25,-10.25,26.00,0.69,0.25,-0.65,-0.19,86.95,-53.31,-81.48,-247.00,0.00,0.00,0.00,0,0,3,0
10.19,Pre Launch,0.00,0.00,0.00,0.00,0.00,0.00,0.00,0.00,0.00,-0.15,100383.50,24.42,0.00,0.00,0.00,,,0.00,0.00,0,0.40,-0.24,7.03,119.94,148.00,-230.56,-88.88,-20.25,21.75,0.69,0.28,-0.64,-0.19,86.44,-50.99,-79.35,-247.00,0.00,0.00,0.00,0,0,3,0
10.20,Pre Launch,0.00,0.00,0.00,0.00,0.00,0.00,0.00,0.00,0.00,-0.15,100383.50,24.42,0.00,0.00,0.00,,,0.00,0.00,0,0.41,-0.55,6.95,73.19,117.62,-225.06,-88.88,-20.25,21.75,0.70,0.31,-0.61,-0.20,85.70,-46.45,-76.19,-247.00,0.00,0.00,0.00,0,0,3,1
10.22,Pre Launch,0.00,0.00,0.00,0.00,0.00,0.00,0.00,0.00,0.00,0.13,100380.14,24.42,0.00,0.00,0.00,,,0.00,0.00,0,-0.99,0.22,6.87,53.25,114.88,-217.69,-88.88,-20.25,21.75,0.70,0.33,-0.60,-0.21,85.26,-44.26,-74.85,-247.00,0.00,0.00,0.00,0,0,3,1
10.23,Pre Launch,0.00,0.00,0.00,0.00,0.00,0.00,0.00,0.00,0.00,0.13,100380.14,24.42,0.00,0.00,0.00,,,0.00,0.00,0,-1.21,0.03,6.86,37.94,113.31,-207.81,-88.88,-20.25,21.75,0.70,0.34,-0.59,-0.22,84.76,-42.16,-73.59,-247.00,0.00,0.00,0.00,0,0,3,1
10.24,Pre Launch,0.00,0.00,0.00,0.00,0.00,0.00,0.00,0.00,0.00,0.13,100380.14,24.42,0.00,0.00,0.00,,,0.00,0.00,0,-1.93,-0.54,6.73,26.69,112.38,-198.62,-80.50,-31.50,20.69,0.70,0.37,-0.57,-0.23,83.77,-38.17,-71.35,-247.00,0.00,0.00,0.00,0,0,3,1
10.26,Pre Launch,0.00,0.00,0.00,0.00,0.00,0.00,0.00,0.00,0.00,0.13,100380.14,24.42,0.00,0.00,0.00,,,0.00,0.00,0,-0.59,-1.70,6.34,14.31,98.00,-193.62,-80.50,-31.50,20.69,0.70,0.38,-0.55,-0.24,83.35,-36.20,-70.43,-221.00,0.00,0.00,0.00,0,0,3,1
10.27,Pre Launch,0.00,0.00,0.00,0.00,0.00,0.00,0.00,0.00,0.00,0.13,100380.14,24.42,0.00,0.00,0.00,,,0.00,0.00,0,-0.96,-1.62,6.12,8.38,98.69,-191.25,-80.50,-31.50,20.69,0.70,0.39,-0.54,-0.25,82.92,-34.24,-69.53,-114.78,0.00,0.00,0.00,0,0,3,1
10.28,Pre Launch,0.00,0.00,0.00,0.00,0.00,0.00,0.00,0.00,0.00,0.28,100378.42,24.42,0.00,0.00,0.00,,,0.00,0.00,0,-1.06,-1.05,5.99,6.62,105.00,-181.06,-70.38,-42.38,17.56,0.70,0.41,-0.52,-0.26,81.99,-30.65,-67.56,-200.85,0.00,0.00,0.00,0,0,3,1
10.30,Pre Launch,0.00,0.00,0.00,0.00,0.00,0.00,0.00,0.00,0.00,0.28,100378.42,24.42,0.00,0.00,0.00,,,0.00,0.00,0,-0.87,-0.74,5.83,8.06,125.06,-147.56,-70.38,-42.38,17.56,0.70,0.42,-0.51,-0.26,81.51,-29.06,-66.42,-147.57,0.00,0.00,0.00,0,0,3,1
10.31,Pre Launch,0.00,0.00,0.00,0.00,0.00,0.00,0.00,0.00,0.00,0.28,100378.42,24.42,0.00,0.00,0.00,,,0.00,0.00,0,-0.40,-0.90,5.62,9.56,135.81,-131.44,-70.38,-42.38,17.56,0.71,0.43,-0.49,-0.27,81.00,-27.60,-65.16,-79.44,0.00,0.00,0.00,0,0,3,1
10.32,Pre Launch,0.00,0.00,0.00,0.00,0.00,0.00,0.00,0.00,0.00,0.28,100378.42,24.42,0.00,0.00,0.00,,,0.00,0.00,0,-0.42,-0.17,4.87,10.38,145.94,-108.12,-70.38,-42.38,17.56,0.71,0.45,-0.47,-0.27,80.01,-24.98,-62.48,-160.41,0.00,0.00,0.00,0,0,3,1
10.34,Pre Launch,0.00,0.00,0.00,0.00,0.00,0.00,0.00,0.00,0.00,0.28,100378.42,24.42,0.00,0.00,0.00,,,0.00,0.00,0,0.14,-0.55,4.76,11.62,140.06,-101.69,-63.56,-50.00,15.25,0.71,0.46,-0.46,-0.27,79.60,-23.77,-61.21,-165.65,0.00,0.00,0.00,0,0,3,1
10.35,Pre Launch,0.00,0.00,0.00,0.00,0.00,0.00,0.00,0.00,0.00,0.22,100379.14,24.42,0.00,0.00,0.00,,,0.00,0.00,0,0.63,-0.07,4.47,12.38,131.25,-99.25,-63.56,-50.00,15.25,0.72,0.47,-0.44,-0.27,79.26,-22.59,-60.04,-91.57,0.00,0.00,0.00,0,0,3,1
10.36,Pre Launch,0.00,0.00,0.00,0.00,0.00,0.00,0.00,0.00,0.00,0.22,100379.14,24.42,0.00,0.00,0.00,,,0.00,0.00,0,0.18,1.51,4.65,12.00,109.62,-91.06,-63.56,-50.00,15.25,0.72,0.48,-0.42,-0.27,78.75,-20.38,-58.04,-138.01,0.00,0.00,0.00,0,0,3,1
10.38,Pre Launch,0.00,0.00,0.00,0.00,0.00,0.00,0.00,0.00,0.00,0.22,100379.14,24.42,0.00,0.00,0.00,,,0.00,0.00,0,0.48,1.42,4.87,11.00,100.94,-84.94,-63.56,-50.00,15.25,0.72,0.49,-0.41,-0.27,78.57,-19.39,-57.19,-133.23,0.00,0.00,0.00,0,0,3,1
10.39,Pre Launch,0.00,0.00,0.00,0.00,0.00,0.00,0.00,0.00,0.00,0.22,100379.14,24.42,0.00,0.00,0.00,,,0.00,0.00,0,0.84,1.43,5.11,9.19,97.62,-80.25,-54.50,-54.56,8.88,0.72,0.49,-0.40,-0.27,78.40,-18.43,-56.38,-111.08,0.00,0.00,0.00,0,0,3,1
10.40,Pre Launch,0.00,0.00,0.00,0.00,0.00,0.00,0.00,0.00,0.00,0.22,100379.14,24.42,0.00,0.00,0.00,,,0.00,0.00,0,1.21,1.63,4.87,6.44,96.75,-77.62,-54.50,-54.56,8.88,0.72,0.50,-0.39,-0.27,78.01,-16.59,-54.77,-72.17,0.00,0.00,0.00,0,0,3,1
10.42,Pre Launch,0.00,0.00,0.00,0.00,0.00,0.00,0.00,0.00,0.00,0.00,100381.66,24.43,0.00,0.00,0.00,,,0.00,0.00,0,0.90,1.56,4.28,0.81,98.75,-75.44,-54.50,-54.56,8.88,0.73,0.51,-0.38,-0.27,77.79,-15.68,-53.95,-84.54,0.00,0.00,0.00,0,0,3,1
10.43,Pre Launch,0.00,0.00,0.00,0.00,0.00,0.00,0.00,0.00,0.00,0.00,100381.66,24.43,0.00,0.00,0.00,,,0.00,0.00,0,1.05,1.28,4.01,-0.31,98.81,-74.75,-54.50,-54.56,8.88,0.73,0.51,-0.37,-0.27,77.58,-14.76,-53.15,-86.51,0.00,0.00,0.00,0,0,3,1
10.44,Pre Launch,0.00,0.00,0.00,0.00,0.00,0.00,0.00,0.00,0.00,0.00,100381.66,24.43,0.00,0.00,0.00,,,0.00,0.00,0,1.41,1.61,4.10,-0.56,96.50,-74.94,-46.75,-57.06,5.56,0.73,0.52,-0.36,-0.27,77.39,-13.86,-52.37,-74.02,0.00,0.00,0.00,0,0,3,1
10.45,Pre Launch,0.00,0.00,0.00,0.00,0.00,0.00,0.00,0.00,0.00,0.00,100381.66,24.43,0.00,0.00,0.00,,,0.00,0.00,0,1.56,1.99,4.34,-6.56,90.38,-73.25,-46.75,-57.06,5.56,0.73,0.52,-0.34,-0.28,76.97,-12.06,-50.89,-48.28,0.00,0.00,0.00,0,0,3,1
10.47,Pre Launch,0.00,0.00,0.00,0.00,0.00,0.00,0.00,0.00,0.00,0.00,100381.66,24.43,0.00,0.00,0.00,,,0.00,0.00,0,2.20,1.47,3.64,-11.50,81.56,-73.94,-46.75,-57.06,5.56,0.73,0.53,-0.33,-0.28,76.72,-11.19,-50.27,-56.96,0.00,0.00,0.00,0,0,3,1
10.48,Pre Launch,0.00,0.00,0.00,0.00,0.00,0.00,0.00,0.00,0.00,-0.04,100382.23,24.43,0.00,0.00,0.00,,,0.00,0.00,0,1.98,0.95,3.68,-16.12,73.88,-75.75,-46.75,-57.06,5.56,0.73,0.53,-0.32,-0.28,76.47,-10.31,-49.73,-31.71,0.00,0.00,0.00,0,0,3,1
10.50,Pre Launch,0.00,0.00,0.00,0.00,0.00,0.00,0.00,0.00,0.00,-0.04,100382.23,24.43,0.00,0.00,0.00,,,0.00,0.00,0,1.47,0.66,3.70,-17.81,69.00,-77.62,-42.25,-58.06,2.19,0.73,0.53,-0.31,-0.28,75.98,-8.54,-48.77,-55.87,0.00,0.00,0.00,0,0,3,1
